{
  "SSP1-2.6_2050": [
    {
      "island_name": "Dhidhdhoo",
      "atoll": "Haa Alif",
      "population": 223,
      "area_km2": 2.4815,
      "pct_inundated": 15.48,
      "pop_at_risk": 39,
      "area_inundated_km2": 0.3882,
      "pct_pop_at_risk": 0.01,
      "vulnerability_index": 0.2188,
      "lat": 3.8108080129862785,
      "lon": 72.902181176737
    },
    {
      "island_name": "Baarah",
      "atoll": "Haa Alif",
      "population": 57,
      "area_km2": 2.6986,
      "pct_inundated": 17.07,
      "pop_at_risk": 11,
      "area_inundated_km2": 0.4656,
      "pct_pop_at_risk": 0,
      "vulnerability_index": 0.221,
      "lat": 6.7799425547895815,
      "lon": 73.01593779948678
    },
    {
      "island_name": "Filladhoo",
      "atoll": "Haa Alif",
      "population": 824,
      "area_km2": 2.3856,
      "pct_inundated": 15.63,
      "pop_at_risk": 143,
      "area_inundated_km2": 0.3769,
      "pct_pop_at_risk": 0.03,
      "vulnerability_index": 0.2228,
      "lat": 6.648366987681567,
      "lon": 73.19361722427271
    },
    {
      "island_name": "Hoarafushi",
      "atoll": "Haa Alif",
      "population": 788,
      "area_km2": 0.5645,
      "pct_inundated": 23.28,
      "pop_at_risk": 203,
      "area_inundated_km2": 0.1328,
      "pct_pop_at_risk": 0.04,
      "vulnerability_index": 0.3076,
      "lat": 6.596497801620629,
      "lon": 73.06194850884191
    },
    {
      "island_name": "Ihavandhoo",
      "atoll": "Haa Alif",
      "population": 116,
      "area_km2": 3.2068,
      "pct_inundated": 23.79,
      "pop_at_risk": 31,
      "area_inundated_km2": 0.771,
      "pct_pop_at_risk": 0.01,
      "vulnerability_index": 0.2417,
      "lat": 6.720366234954066,
      "lon": 72.90536890304772
    },
    {
      "island_name": "Kelaa",
      "atoll": "Haa Alif",
      "population": 1300,
      "area_km2": 2.3896,
      "pct_inundated": 15.72,
      "pop_at_risk": 227,
      "area_inundated_km2": 0.3796,
      "pct_pop_at_risk": 0.05,
      "vulnerability_index": 0.2237,
      "lat": 7.056366887701761,
      "lon": 73.05579549116217
    },
    {
      "island_name": "Maarandhoo",
      "atoll": "Haa Alif",
      "population": 479,
      "area_km2": 5.4021,
      "pct_inundated": 21.84,
      "pop_at_risk": 117,
      "area_inundated_km2": 1.1924,
      "pct_pop_at_risk": 0.02,
      "vulnerability_index": 0.1762,
      "lat": 6.629576587229868,
      "lon": 73.04005976306276
    },
    {
      "island_name": "Kulhudhuffushi",
      "atoll": "Haa Dhaalu",
      "population": 12000,
      "area_km2": 2.4343,
      "pct_inundated": 15.06,
      "pop_at_risk": 2007,
      "area_inundated_km2": 0.3705,
      "pct_pop_at_risk": 0.41,
      "vulnerability_index": 0.2326,
      "lat": 6.524997613433515,
      "lon": 73.13715797397009
    },
    {
      "island_name": "Hanimaadhoo",
      "atoll": "Haa Dhaalu",
      "population": 170,
      "area_km2": 8,
      "pct_inundated": 22.44,
      "pop_at_risk": 42,
      "area_inundated_km2": 1.8144,
      "pct_pop_at_risk": 0.01,
      "vulnerability_index": 0.1124,
      "lat": 6.268247259866504,
      "lon": 72.93815372374098
    },
    {
      "island_name": "Finey",
      "atoll": "Haa Dhaalu",
      "population": 50,
      "area_km2": 3.4382,
      "pct_inundated": 19.92,
      "pop_at_risk": 11,
      "area_inundated_km2": 0.6922,
      "pct_pop_at_risk": 0,
      "vulnerability_index": 0.2163,
      "lat": 6.3732927648172,
      "lon": 72.91165716372468
    },
    {
      "island_name": "Kumundhoo",
      "atoll": "Haa Dhaalu",
      "population": 176,
      "area_km2": 3.7946,
      "pct_inundated": 24.78,
      "pop_at_risk": 49,
      "area_inundated_km2": 0.9503,
      "pct_pop_at_risk": 0.01,
      "vulnerability_index": 0.2317,
      "lat": 6.3678793365061,
      "lon": 72.88015079075241
    },
    {
      "island_name": "Makunudhoo",
      "atoll": "Haa Dhaalu",
      "population": 439,
      "area_km2": 0.9866,
      "pct_inundated": 16.05,
      "pop_at_risk": 78,
      "area_inundated_km2": 0.16,
      "pct_pop_at_risk": 0.02,
      "vulnerability_index": 0.2602,
      "lat": 6.454753514729616,
      "lon": 72.87284264395079
    },
    {
      "island_name": "Naivaadhoo",
      "atoll": "Haa Dhaalu",
      "population": 528,
      "area_km2": 4.5114,
      "pct_inundated": 16.8,
      "pop_at_risk": 99,
      "area_inundated_km2": 0.766,
      "pct_pop_at_risk": 0.02,
      "vulnerability_index": 0.1739,
      "lat": 6.598280762624526,
      "lon": 73.12333977452325
    },
    {
      "island_name": "Neykurendhoo",
      "atoll": "Haa Dhaalu",
      "population": 317,
      "area_km2": 2.4035,
      "pct_inundated": 22.77,
      "pop_at_risk": 80,
      "area_inundated_km2": 0.5531,
      "pct_pop_at_risk": 0.02,
      "vulnerability_index": 0.2574,
      "lat": 6.5592881157783065,
      "lon": 72.92150269499317
    },
    {
      "island_name": "Nolhivaranfaru",
      "atoll": "Haa Dhaalu",
      "population": 311,
      "area_km2": 3.354,
      "pct_inundated": 20.01,
      "pop_at_risk": 69,
      "area_inundated_km2": 0.6783,
      "pct_pop_at_risk": 0.01,
      "vulnerability_index": 0.2193,
      "lat": 6.31509330098403,
      "lon": 72.85807343363018
    },
    {
      "island_name": "Nolhivaram",
      "atoll": "Haa Dhaalu",
      "population": 517,
      "area_km2": 8,
      "pct_inundated": 23.04,
      "pop_at_risk": 132,
      "area_inundated_km2": 1.8629,
      "pct_pop_at_risk": 0.03,
      "vulnerability_index": 0.1158,
      "lat": 6.316161374087948,
      "lon": 73.01611590768819
    },
    {
      "island_name": "Vaikaradhoo",
      "atoll": "Haa Dhaalu",
      "population": 851,
      "area_km2": 1.3786,
      "pct_inundated": 24.72,
      "pop_at_risk": 233,
      "area_inundated_km2": 0.3444,
      "pct_pop_at_risk": 0.05,
      "vulnerability_index": 0.294,
      "lat": 6.313004418093014,
      "lon": 73.07425055425247
    },
    {
      "island_name": "Nellaidhoo",
      "atoll": "Haa Dhaalu",
      "population": 2032,
      "area_km2": 1.7814,
      "pct_inundated": 17.49,
      "pop_at_risk": 394,
      "area_inundated_km2": 0.3149,
      "pct_pop_at_risk": 0.08,
      "vulnerability_index": 0.249,
      "lat": 6.545753892626556,
      "lon": 72.96197147597837
    },
    {
      "island_name": "Funadhoo",
      "atoll": "Shaviyani",
      "population": 3500,
      "area_km2": 2.9027,
      "pct_inundated": 20.25,
      "pop_at_risk": 787,
      "area_inundated_km2": 0.5941,
      "pct_pop_at_risk": 0.16,
      "vulnerability_index": 0.236,
      "lat": 6.0967332888154155,
      "lon": 73.13009687943386
    },
    {
      "island_name": "Goidhoo",
      "atoll": "Shaviyani",
      "population": 415,
      "area_km2": 1.7369,
      "pct_inundated": 21.78,
      "pop_at_risk": 100,
      "area_inundated_km2": 0.3823,
      "pct_pop_at_risk": 0.02,
      "vulnerability_index": 0.2696,
      "lat": 5.159886139039855,
      "lon": 73.00243383827676
    },
    {
      "island_name": "Komandoo",
      "atoll": "Shaviyani",
      "population": 153,
      "area_km2": 0.3997,
      "pct_inundated": 21.18,
      "pop_at_risk": 36,
      "area_inundated_km2": 0.0856,
      "pct_pop_at_risk": 0.01,
      "vulnerability_index": 0.3005,
      "lat": 5.985817406253381,
      "lon": 73.07920094929385
    },
    {
      "island_name": "Narudhoo",
      "atoll": "Shaviyani",
      "population": 2330,
      "area_km2": 3.3435,
      "pct_inundated": 20.16,
      "pop_at_risk": 522,
      "area_inundated_km2": 0.6812,
      "pct_pop_at_risk": 0.11,
      "vulnerability_index": 0.2228,
      "lat": 6.089552262946859,
      "lon": 73.00402738541692
    },
    {
      "island_name": "Feydhoo",
      "atoll": "Shaviyani",
      "population": 1032,
      "area_km2": 6.6971,
      "pct_inundated": 15.81,
      "pop_at_risk": 181,
      "area_inundated_km2": 1.0701,
      "pct_pop_at_risk": 0.04,
      "vulnerability_index": 0.1137,
      "lat": -0.5992875377413089,
      "lon": 73.14323906577035
    },
    {
      "island_name": "Maroshi",
      "atoll": "Shaviyani",
      "population": 556,
      "area_km2": 1.0774,
      "pct_inundated": 16.8,
      "pop_at_risk": 103,
      "area_inundated_km2": 0.1829,
      "pct_pop_at_risk": 0.02,
      "vulnerability_index": 0.2617,
      "lat": 5.903880948935142,
      "lon": 73.00927018887812
    },
    {
      "island_name": "Kanditheemu",
      "atoll": "Shaviyani",
      "population": 185,
      "area_km2": 2.5205,
      "pct_inundated": 23.46,
      "pop_at_risk": 48,
      "area_inundated_km2": 0.5976,
      "pct_pop_at_risk": 0.01,
      "vulnerability_index": 0.2577,
      "lat": 5.978921936517331,
      "lon": 72.96626404005016
    },
    {
      "island_name": "Foakaidhoo",
      "atoll": "Shaviyani",
      "population": 771,
      "area_km2": 2.2838,
      "pct_inundated": 20.25,
      "pop_at_risk": 173,
      "area_inundated_km2": 0.4674,
      "pct_pop_at_risk": 0.04,
      "vulnerability_index": 0.2484,
      "lat": 6.0431871906838355,
      "lon": 73.19954969297386
    },
    {
      "island_name": "Lhaimagu",
      "atoll": "Shaviyani",
      "population": 1592,
      "area_km2": 3.616,
      "pct_inundated": 21.09,
      "pop_at_risk": 373,
      "area_inundated_km2": 0.7707,
      "pct_pop_at_risk": 0.08,
      "vulnerability_index": 0.2196,
      "lat": 6.084832683830716,
      "lon": 73.21194755476013
    },
    {
      "island_name": "Milandhoo",
      "atoll": "Shaviyani",
      "population": 425,
      "area_km2": 1.5866,
      "pct_inundated": 18.9,
      "pop_at_risk": 89,
      "area_inundated_km2": 0.3031,
      "pct_pop_at_risk": 0.02,
      "vulnerability_index": 0.2591,
      "lat": 6.03394067620019,
      "lon": 73.06710628776744
    },
    {
      "island_name": "Nalandhoo",
      "atoll": "Shaviyani",
      "population": 787,
      "area_km2": 4.9393,
      "pct_inundated": 20.1,
      "pop_at_risk": 175,
      "area_inundated_km2": 1.0034,
      "pct_pop_at_risk": 0.04,
      "vulnerability_index": 0.1798,
      "lat": 6.181768359495739,
      "lon": 73.00237505839961
    },
    {
      "island_name": "Manadhoo",
      "atoll": "Noonu",
      "population": 107,
      "area_km2": 1.7408,
      "pct_inundated": 19.26,
      "pop_at_risk": 23,
      "area_inundated_km2": 0.3389,
      "pct_pop_at_risk": 0,
      "vulnerability_index": 0.2565,
      "lat": 5.780173178850713,
      "lon": 73.3778505177884
    },
    {
      "island_name": "Fodhdhoo",
      "atoll": "Noonu",
      "population": 227,
      "area_km2": 8,
      "pct_inundated": 15.63,
      "pop_at_risk": 39,
      "area_inundated_km2": 1.2638,
      "pct_pop_at_risk": 0.01,
      "vulnerability_index": 0.0784,
      "lat": 5.761471766608644,
      "lon": 73.41418768063052
    },
    {
      "island_name": "Holhudhoo",
      "atoll": "Noonu",
      "population": 540,
      "area_km2": 1.5362,
      "pct_inundated": 24.78,
      "pop_at_risk": 149,
      "area_inundated_km2": 0.3848,
      "pct_pop_at_risk": 0.03,
      "vulnerability_index": 0.2899,
      "lat": 5.841601050724648,
      "lon": 73.29603012311179
    },
    {
      "island_name": "Kendhikulhudhoo",
      "atoll": "Noonu",
      "population": 593,
      "area_km2": 2.6957,
      "pct_inundated": 17.64,
      "pop_at_risk": 117,
      "area_inundated_km2": 0.4806,
      "pct_pop_at_risk": 0.02,
      "vulnerability_index": 0.2246,
      "lat": 5.767186374291122,
      "lon": 73.19401678053988
    },
    {
      "island_name": "Kudafari",
      "atoll": "Noonu",
      "population": 207,
      "area_km2": 8,
      "pct_inundated": 24.21,
      "pop_at_risk": 56,
      "area_inundated_km2": 1.9575,
      "pct_pop_at_risk": 0.01,
      "vulnerability_index": 0.1213,
      "lat": 5.938925528418954,
      "lon": 73.440254575559
    },
    {
      "island_name": "Landhoo",
      "atoll": "Noonu",
      "population": 299,
      "area_km2": 3.4813,
      "pct_inundated": 20.52,
      "pop_at_risk": 68,
      "area_inundated_km2": 0.722,
      "pct_pop_at_risk": 0.01,
      "vulnerability_index": 0.2185,
      "lat": 5.771027484121972,
      "lon": 73.39211930117852
    },
    {
      "island_name": "Lhohi",
      "atoll": "Noonu",
      "population": 264,
      "area_km2": 3.858,
      "pct_inundated": 23.88,
      "pop_at_risk": 70,
      "area_inundated_km2": 0.9311,
      "pct_pop_at_risk": 0.01,
      "vulnerability_index": 0.2257,
      "lat": 5.7891269603951665,
      "lon": 73.4843897297942
    },
    {
      "island_name": "Maafaru",
      "atoll": "Noonu",
      "population": 104,
      "area_km2": 1.697,
      "pct_inundated": 15.3,
      "pop_at_risk": 18,
      "area_inundated_km2": 0.2624,
      "pct_pop_at_risk": 0,
      "vulnerability_index": 0.2378,
      "lat": 5.76553962047108,
      "lon": 73.35070058802391
    },
    {
      "island_name": "Magoodhoo",
      "atoll": "Noonu",
      "population": 2199,
      "area_km2": 1.6274,
      "pct_inundated": 16.38,
      "pop_at_risk": 400,
      "area_inundated_km2": 0.2694,
      "pct_pop_at_risk": 0.08,
      "vulnerability_index": 0.2476,
      "lat": 2.9103438542015723,
      "lon": 73.03032678275609
    },
    {
      "island_name": "Miladhoo",
      "atoll": "Noonu",
      "population": 192,
      "area_km2": 4.3193,
      "pct_inundated": 18.24,
      "pop_at_risk": 39,
      "area_inundated_km2": 0.7962,
      "pct_pop_at_risk": 0.01,
      "vulnerability_index": 0.1856,
      "lat": 5.809744880641751,
      "lon": 73.2486073937613
    },
    {
      "island_name": "Velidhoo",
      "atoll": "Noonu",
      "population": 79,
      "area_km2": 0.6085,
      "pct_inundated": 18.06,
      "pop_at_risk": 16,
      "area_inundated_km2": 0.1111,
      "pct_pop_at_risk": 0,
      "vulnerability_index": 0.2794,
      "lat": 5.854726860289166,
      "lon": 73.11107045589272
    },
    {
      "island_name": "Noonu Island 12",
      "atoll": "Noonu",
      "population": 145,
      "area_km2": 4.6093,
      "pct_inundated": 22.2,
      "pop_at_risk": 36,
      "area_inundated_km2": 1.0342,
      "pct_pop_at_risk": 0.01,
      "vulnerability_index": 0.1979,
      "lat": 5.79067886544873,
      "lon": 73.29554250822298
    },
    {
      "island_name": "Noonu Island 13",
      "atoll": "Noonu",
      "population": 65,
      "area_km2": 2.222,
      "pct_inundated": 21.93,
      "pop_at_risk": 16,
      "area_inundated_km2": 0.4925,
      "pct_pop_at_risk": 0,
      "vulnerability_index": 0.2575,
      "lat": 5.779141803220646,
      "lon": 73.37725595959398
    },
    {
      "island_name": "Ugoofaaru",
      "atoll": "Raa",
      "population": 725,
      "area_km2": 1.5024,
      "pct_inundated": 15.06,
      "pop_at_risk": 121,
      "area_inundated_km2": 0.2287,
      "pct_pop_at_risk": 0.02,
      "vulnerability_index": 0.2424,
      "lat": 5.479776702839829,
      "lon": 72.8106907381701
    },
    {
      "island_name": "Alifushi",
      "atoll": "Raa",
      "population": 50,
      "area_km2": 1.7421,
      "pct_inundated": 17.4,
      "pop_at_risk": 10,
      "area_inundated_km2": 0.3063,
      "pct_pop_at_risk": 0,
      "vulnerability_index": 0.2471,
      "lat": 5.5588513276909595,
      "lon": 72.90059042072403
    },
    {
      "island_name": "Dhuvaafaru",
      "atoll": "Raa",
      "population": 109,
      "area_km2": 1.1358,
      "pct_inundated": 22.11,
      "pop_at_risk": 27,
      "area_inundated_km2": 0.2538,
      "pct_pop_at_risk": 0.01,
      "vulnerability_index": 0.2862,
      "lat": 5.683859943105807,
      "lon": 72.86611537124638
    },
    {
      "island_name": "Fainu",
      "atoll": "Raa",
      "population": 50,
      "area_km2": 2.5821,
      "pct_inundated": 24.54,
      "pop_at_risk": 13,
      "area_inundated_km2": 0.6404,
      "pct_pop_at_risk": 0,
      "vulnerability_index": 0.2613,
      "lat": 5.593198691446613,
      "lon": 72.94623248841293
    },
    {
      "island_name": "Hulhudhuffaaru",
      "atoll": "Raa",
      "population": 552,
      "area_km2": 1.8093,
      "pct_inundated": 18.84,
      "pop_at_risk": 116,
      "area_inundated_km2": 0.3445,
      "pct_pop_at_risk": 0.02,
      "vulnerability_index": 0.2532,
      "lat": 5.572286945994079,
      "lon": 72.82314121304618
    },
    {
      "island_name": "Innamaadhoo",
      "atoll": "Raa",
      "population": 1804,
      "area_km2": 8,
      "pct_inundated": 24.12,
      "pop_at_risk": 483,
      "area_inundated_km2": 1.9502,
      "pct_pop_at_risk": 0.1,
      "vulnerability_index": 0.1229,
      "lat": 5.774233600118717,
      "lon": 72.8775197623478
    },
    {
      "island_name": "Kinolhas",
      "atoll": "Raa",
      "population": 1795,
      "area_km2": 1.124,
      "pct_inundated": 23.88,
      "pop_at_risk": 476,
      "area_inundated_km2": 0.2713,
      "pct_pop_at_risk": 0.1,
      "vulnerability_index": 0.2975,
      "lat": 5.797650287206669,
      "lon": 72.93858575945221
    },
    {
      "island_name": "Maakurathu",
      "atoll": "Raa",
      "population": 101,
      "area_km2": 3.9449,
      "pct_inundated": 24.63,
      "pop_at_risk": 28,
      "area_inundated_km2": 0.982,
      "pct_pop_at_risk": 0.01,
      "vulnerability_index": 0.227,
      "lat": 5.799589665792786,
      "lon": 73.08272606588032
    },
    {
      "island_name": "Meedhoo",
      "atoll": "Raa",
      "population": 2776,
      "area_km2": 1.8335,
      "pct_inundated": 22.26,
      "pop_at_risk": 686,
      "area_inundated_km2": 0.4125,
      "pct_pop_at_risk": 0.14,
      "vulnerability_index": 0.2725,
      "lat": -0.6275199080415815,
      "lon": 73.15553851495626
    },
    {
      "island_name": "Rasgetheemu",
      "atoll": "Raa",
      "population": 821,
      "area_km2": 2.2712,
      "pct_inundated": 23.28,
      "pop_at_risk": 212,
      "area_inundated_km2": 0.5343,
      "pct_pop_at_risk": 0.04,
      "vulnerability_index": 0.2639,
      "lat": 5.715121421198156,
      "lon": 73.17792492387302
    },
    {
      "island_name": "Ungoofaaru",
      "atoll": "Raa",
      "population": 78,
      "area_km2": 4.4374,
      "pct_inundated": 21.18,
      "pop_at_risk": 19,
      "area_inundated_km2": 0.9498,
      "pct_pop_at_risk": 0,
      "vulnerability_index": 0.1971,
      "lat": 5.63809581050605,
      "lon": 72.9233174966004
    },
    {
      "island_name": "Vaadhoo",
      "atoll": "Raa",
      "population": 390,
      "area_km2": 4.0384,
      "pct_inundated": 22.26,
      "pop_at_risk": 97,
      "area_inundated_km2": 0.9085,
      "pct_pop_at_risk": 0.02,
      "vulnerability_index": 0.2131,
      "lat": 5.798495780862518,
      "lon": 73.08391293331141
    },
    {
      "island_name": "Raa Island 13",
      "atoll": "Raa",
      "population": 67,
      "area_km2": 1.7204,
      "pct_inundated": 23.61,
      "pop_at_risk": 18,
      "area_inundated_km2": 0.4105,
      "pct_pop_at_risk": 0,
      "vulnerability_index": 0.2787,
      "lat": 5.452704517183058,
      "lon": 72.88087089315077
    },
    {
      "island_name": "Eydhafushi",
      "atoll": "Baa",
      "population": 4500,
      "area_km2": 2.8777,
      "pct_inundated": 21.93,
      "pop_at_risk": 1096,
      "area_inundated_km2": 0.6378,
      "pct_pop_at_risk": 0.22,
      "vulnerability_index": 0.2463,
      "lat": 4.929433182447552,
      "lon": 73.07182196922875
    },
    {
      "island_name": "Dhonfanu",
      "atoll": "Baa",
      "population": 50,
      "area_km2": 1.9316,
      "pct_inundated": 22.86,
      "pop_at_risk": 12,
      "area_inundated_km2": 0.4463,
      "pct_pop_at_risk": 0,
      "vulnerability_index": 0.2696,
      "lat": 5.224316873197518,
      "lon": 72.82824544795515
    },
    {
      "island_name": "Dharavandhoo",
      "atoll": "Baa",
      "population": 201,
      "area_km2": 2.6346,
      "pct_inundated": 16.89,
      "pop_at_risk": 38,
      "area_inundated_km2": 0.4498,
      "pct_pop_at_risk": 0.01,
      "vulnerability_index": 0.2219,
      "lat": 5.260435047084567,
      "lon": 72.8307769553109
    },
    {
      "island_name": "Fehendhoo",
      "atoll": "Baa",
      "population": 611,
      "area_km2": 2.9095,
      "pct_inundated": 15.96,
      "pop_at_risk": 109,
      "area_inundated_km2": 0.4694,
      "pct_pop_at_risk": 0.02,
      "vulnerability_index": 0.2108,
      "lat": 4.920057454616776,
      "lon": 72.97179905380396
    },
    {
      "island_name": "Fulhadhoo",
      "atoll": "Baa",
      "population": 687,
      "area_km2": 4.0579,
      "pct_inundated": 16.23,
      "pop_at_risk": 124,
      "area_inundated_km2": 0.6656,
      "pct_pop_at_risk": 0.03,
      "vulnerability_index": 0.1828,
      "lat": 4.95893481617303,
      "lon": 72.92697107094037
    },
    {
      "island_name": "Goidhoo",
      "atoll": "Baa",
      "population": 390,
      "area_km2": 3.1384,
      "pct_inundated": 21.78,
      "pop_at_risk": 94,
      "area_inundated_km2": 0.6908,
      "pct_pop_at_risk": 0.02,
      "vulnerability_index": 0.2337,
      "lat": 5.159886139039855,
      "lon": 73.00243383827676
    },
    {
      "island_name": "Hithaadhoo",
      "atoll": "Baa",
      "population": 1729,
      "area_km2": 3.2989,
      "pct_inundated": 20.85,
      "pop_at_risk": 400,
      "area_inundated_km2": 0.6951,
      "pct_pop_at_risk": 0.08,
      "vulnerability_index": 0.2266,
      "lat": 5.126994727232259,
      "lon": 72.86951412003708
    },
    {
      "island_name": "Kamadhoo",
      "atoll": "Baa",
      "population": 166,
      "area_km2": 8,
      "pct_inundated": 23.88,
      "pop_at_risk": 44,
      "area_inundated_km2": 1.9308,
      "pct_pop_at_risk": 0.01,
      "vulnerability_index": 0.1196,
      "lat": 5.086040553773297,
      "lon": 72.8353434395593
    },
    {
      "island_name": "Naifaru",
      "atoll": "Lhaviyani",
      "population": 5000,
      "area_km2": 8,
      "pct_inundated": 23.04,
      "pop_at_risk": 1280,
      "area_inundated_km2": 1.8629,
      "pct_pop_at_risk": 0.26,
      "vulnerability_index": 0.1215,
      "lat": 5.4663221687232895,
      "lon": 73.57865006669392
    },
    {
      "island_name": "Hinnavaru",
      "atoll": "Lhaviyani",
      "population": 725,
      "area_km2": 2.2711,
      "pct_inundated": 16.47,
      "pop_at_risk": 132,
      "area_inundated_km2": 0.3781,
      "pct_pop_at_risk": 0.03,
      "vulnerability_index": 0.2298,
      "lat": 5.324987295462048,
      "lon": 73.34878967417143
    },
    {
      "island_name": "Kurendhoo",
      "atoll": "Lhaviyani",
      "population": 1348,
      "area_km2": 5.1643,
      "pct_inundated": 20.34,
      "pop_at_risk": 304,
      "area_inundated_km2": 1.0616,
      "pct_pop_at_risk": 0.06,
      "vulnerability_index": 0.1759,
      "lat": 5.330849531975307,
      "lon": 73.38801963382586
    },
    {
      "island_name": "Feydhoofinolhu",
      "atoll": "Lhaviyani",
      "population": 756,
      "area_km2": 3.9418,
      "pct_inundated": 24.87,
      "pop_at_risk": 209,
      "area_inundated_km2": 0.9908,
      "pct_pop_at_risk": 0.04,
      "vulnerability_index": 0.2291,
      "lat": 5.304382597236983,
      "lon": 73.51348458279703
    },
    {
      "island_name": "Olhuvelifushi",
      "atoll": "Lhaviyani",
      "population": 151,
      "area_km2": 1.9954,
      "pct_inundated": 22.62,
      "pop_at_risk": 38,
      "area_inundated_km2": 0.4562,
      "pct_pop_at_risk": 0.01,
      "vulnerability_index": 0.2669,
      "lat": 5.3829659636092755,
      "lon": 73.59136496817025
    },
    {
      "island_name": "Lhaviyani Island 06",
      "atoll": "Lhaviyani",
      "population": 394,
      "area_km2": 5.2163,
      "pct_inundated": 21.18,
      "pop_at_risk": 92,
      "area_inundated_km2": 1.1166,
      "pct_pop_at_risk": 0.02,
      "vulnerability_index": 0.1776,
      "lat": 5.357219424950243,
      "lon": 73.43411351932075
    },
    {
      "island_name": "Lhaviyani Island 07",
      "atoll": "Lhaviyani",
      "population": 105,
      "area_km2": 4.4607,
      "pct_inundated": 22.86,
      "pop_at_risk": 27,
      "area_inundated_km2": 1.0306,
      "pct_pop_at_risk": 0.01,
      "vulnerability_index": 0.205,
      "lat": 5.53488480996687,
      "lon": 73.3090394672493
    },
    {
      "island_name": "Lhaviyani Island 08",
      "atoll": "Lhaviyani",
      "population": 58,
      "area_km2": 3.3623,
      "pct_inundated": 21.09,
      "pop_at_risk": 13,
      "area_inundated_km2": 0.7167,
      "pct_pop_at_risk": 0,
      "vulnerability_index": 0.2241,
      "lat": 5.4526208410860555,
      "lon": 73.37627000957174
    },
    {
      "island_name": "Male",
      "atoll": "Kaafu",
      "population": 240000,
      "area_km2": 7.3172,
      "pct_inundated": 15.48,
      "pop_at_risk": 41265,
      "area_inundated_km2": 1.1448,
      "pct_pop_at_risk": 8.39,
      "vulnerability_index": 0.3949,
      "lat": 4.038652281227673,
      "lon": 73.62820712549804
    },
    {
      "island_name": "Hulhumale",
      "atoll": "Kaafu",
      "population": 65000,
      "area_km2": 5.474,
      "pct_inundated": 6,
      "pop_at_risk": 4332,
      "area_inundated_km2": 0.3319,
      "pct_pop_at_risk": 0.88,
      "vulnerability_index": 0.1759,
      "lat": 3.9507583940752684,
      "lon": 73.322885368956
    },
    {
      "island_name": "Maafushi",
      "atoll": "Kaafu",
      "population": 3800,
      "area_km2": 1.5778,
      "pct_inundated": 28.5,
      "pop_at_risk": 1203,
      "area_inundated_km2": 0.4545,
      "pct_pop_at_risk": 0.24,
      "vulnerability_index": 0.3115,
      "lat": 4.2651247674401676,
      "lon": 73.42288716894642
    },
    {
      "island_name": "Guraidhoo",
      "atoll": "Kaafu",
      "population": 142,
      "area_km2": 1.06,
      "pct_inundated": 17.16,
      "pop_at_risk": 27,
      "area_inundated_km2": 0.1838,
      "pct_pop_at_risk": 0.01,
      "vulnerability_index": 0.2635,
      "lat": 2.3066042161678437,
      "lon": 73.14269861383194
    },
    {
      "island_name": "Thulusdhoo",
      "atoll": "Kaafu",
      "population": 254,
      "area_km2": 6.8532,
      "pct_inundated": 18,
      "pop_at_risk": 51,
      "area_inundated_km2": 1.2468,
      "pct_pop_at_risk": 0.01,
      "vulnerability_index": 0.1196,
      "lat": 4.264939675809568,
      "lon": 73.50840911525498
    },
    {
      "island_name": "Dhiffushi",
      "atoll": "Kaafu",
      "population": 339,
      "area_km2": 6.1227,
      "pct_inundated": 24.12,
      "pop_at_risk": 91,
      "area_inundated_km2": 1.4926,
      "pct_pop_at_risk": 0.02,
      "vulnerability_index": 0.169,
      "lat": 4.364596233788085,
      "lon": 73.685545418315
    },
    {
      "island_name": "Rasdhoo",
      "atoll": "Alifu Alifu",
      "population": 439,
      "area_km2": 2.8172,
      "pct_inundated": 17.58,
      "pop_at_risk": 86,
      "area_inundated_km2": 0.5006,
      "pct_pop_at_risk": 0.02,
      "vulnerability_index": 0.221,
      "lat": 3.9646396289147994,
      "lon": 72.81494153275037
    },
    {
      "island_name": "Mathiveri",
      "atoll": "Alifu Alifu",
      "population": 84,
      "area_km2": 3.0907,
      "pct_inundated": 21,
      "pop_at_risk": 20,
      "area_inundated_km2": 0.6559,
      "pct_pop_at_risk": 0,
      "vulnerability_index": 0.2307,
      "lat": 4.120309810112302,
      "lon": 72.8208682781716
    },
    {
      "island_name": "Feridhoo",
      "atoll": "Alifu Alifu",
      "population": 389,
      "area_km2": 8,
      "pct_inundated": 22.95,
      "pop_at_risk": 99,
      "area_inundated_km2": 1.8556,
      "pct_pop_at_risk": 0.02,
      "vulnerability_index": 0.1152,
      "lat": 4.104105459492213,
      "lon": 72.71607568853443
    },
    {
      "island_name": "Maalhos",
      "atoll": "Alifu Alifu",
      "population": 511,
      "area_km2": 3.5558,
      "pct_inundated": 23.52,
      "pop_at_risk": 133,
      "area_inundated_km2": 0.8452,
      "pct_pop_at_risk": 0.03,
      "vulnerability_index": 0.2319,
      "lat": 4.029659407499633,
      "lon": 72.84845847627112
    },
    {
      "island_name": "Himandhoo",
      "atoll": "Alifu Alifu",
      "population": 203,
      "area_km2": 1.4374,
      "pct_inundated": 17.58,
      "pop_at_risk": 40,
      "area_inundated_km2": 0.2554,
      "pct_pop_at_risk": 0.01,
      "vulnerability_index": 0.256,
      "lat": 4.026164884324224,
      "lon": 72.79761048133895
    },
    {
      "island_name": "Thoddoo",
      "atoll": "Alifu Alifu",
      "population": 184,
      "area_km2": 7.6223,
      "pct_inundated": 23.94,
      "pop_at_risk": 49,
      "area_inundated_km2": 1.8443,
      "pct_pop_at_risk": 0.01,
      "vulnerability_index": 0.1296,
      "lat": 4.059883179413127,
      "lon": 72.79412461678594
    },
    {
      "island_name": "Ukulhas",
      "atoll": "Alifu Alifu",
      "population": 50,
      "area_km2": 8,
      "pct_inundated": 20.25,
      "pop_at_risk": 11,
      "area_inundated_km2": 1.6373,
      "pct_pop_at_risk": 0,
      "vulnerability_index": 0.1013,
      "lat": 4.120058923882912,
      "lon": 72.78058193549062
    },
    {
      "island_name": "Mahibadhoo",
      "atoll": "Alifu Dhaalu",
      "population": 725,
      "area_km2": 5.4863,
      "pct_inundated": 24.3,
      "pop_at_risk": 195,
      "area_inundated_km2": 1.3474,
      "pct_pop_at_risk": 0.04,
      "vulnerability_index": 0.1867,
      "lat": 3.891578821149091,
      "lon": 72.83519556730408
    },
    {
      "island_name": "Dhidhdhoo",
      "atoll": "Alifu Dhaalu",
      "population": 183,
      "area_km2": 2.6742,
      "pct_inundated": 15.48,
      "pop_at_risk": 31,
      "area_inundated_km2": 0.4184,
      "pct_pop_at_risk": 0.01,
      "vulnerability_index": 0.2138,
      "lat": 3.8108080129862785,
      "lon": 72.902181176737
    },
    {
      "island_name": "Fenfushi",
      "atoll": "Alifu Dhaalu",
      "population": 424,
      "area_km2": 2.8668,
      "pct_inundated": 17.64,
      "pop_at_risk": 83,
      "area_inundated_km2": 0.5111,
      "pct_pop_at_risk": 0.02,
      "vulnerability_index": 0.22,
      "lat": 3.5619875567993122,
      "lon": 72.89121552181692
    },
    {
      "island_name": "Kunburudhoo",
      "atoll": "Alifu Dhaalu",
      "population": 187,
      "area_km2": 8,
      "pct_inundated": 17.4,
      "pop_at_risk": 37,
      "area_inundated_km2": 1.4069,
      "pct_pop_at_risk": 0.01,
      "vulnerability_index": 0.0872,
      "lat": 3.6448645626764895,
      "lon": 72.75131307158185
    },
    {
      "island_name": "Mandhoo",
      "atoll": "Alifu Dhaalu",
      "population": 277,
      "area_km2": 5.3551,
      "pct_inundated": 20.76,
      "pop_at_risk": 64,
      "area_inundated_km2": 1.1236,
      "pct_pop_at_risk": 0.01,
      "vulnerability_index": 0.1718,
      "lat": 3.6789331600603026,
      "lon": 72.71356145390625
    },
    {
      "island_name": "Maamigili",
      "atoll": "Alifu Dhaalu",
      "population": 362,
      "area_km2": 2.3426,
      "pct_inundated": 20.01,
      "pop_at_risk": 80,
      "area_inundated_km2": 0.4738,
      "pct_pop_at_risk": 0.02,
      "vulnerability_index": 0.2452,
      "lat": 3.9289210001539723,
      "lon": 72.74658091599042
    },
    {
      "island_name": "Omadhoo",
      "atoll": "Alifu Dhaalu",
      "population": 1656,
      "area_km2": 7.3057,
      "pct_inundated": 24.87,
      "pop_at_risk": 458,
      "area_inundated_km2": 1.8363,
      "pct_pop_at_risk": 0.09,
      "vulnerability_index": 0.1442,
      "lat": 2.062133177838319,
      "lon": 72.90604480927718
    },
    {
      "island_name": "Alifu Dhaalu Island 08",
      "atoll": "Alifu Dhaalu",
      "population": 51,
      "area_km2": 2.7904,
      "pct_inundated": 16.23,
      "pop_at_risk": 9,
      "area_inundated_km2": 0.4577,
      "pct_pop_at_risk": 0,
      "vulnerability_index": 0.2145,
      "lat": 3.630347145355853,
      "lon": 72.72127973485536
    },
    {
      "island_name": "Alifu Dhaalu Island 09",
      "atoll": "Alifu Dhaalu",
      "population": 405,
      "area_km2": 2.195,
      "pct_inundated": 22.53,
      "pop_at_risk": 101,
      "area_inundated_km2": 0.4998,
      "pct_pop_at_risk": 0.02,
      "vulnerability_index": 0.2616,
      "lat": 3.8391210497797283,
      "lon": 72.73971320158796
    },
    {
      "island_name": "Alifu Dhaalu Island 10",
      "atoll": "Alifu Dhaalu",
      "population": 317,
      "area_km2": 4.7155,
      "pct_inundated": 21.09,
      "pop_at_risk": 74,
      "area_inundated_km2": 1.0051,
      "pct_pop_at_risk": 0.02,
      "vulnerability_index": 0.1898,
      "lat": 3.6976332739455704,
      "lon": 72.88414902499275
    },
    {
      "island_name": "Alifu Dhaalu Island 11",
      "atoll": "Alifu Dhaalu",
      "population": 148,
      "area_km2": 2.1549,
      "pct_inundated": 18.15,
      "pop_at_risk": 30,
      "area_inundated_km2": 0.3953,
      "pct_pop_at_risk": 0.01,
      "vulnerability_index": 0.2404,
      "lat": 3.849721737648296,
      "lon": 72.8285856009062
    },
    {
      "island_name": "Alifu Dhaalu Island 12",
      "atoll": "Alifu Dhaalu",
      "population": 1420,
      "area_km2": 1.1907,
      "pct_inundated": 23.79,
      "pop_at_risk": 375,
      "area_inundated_km2": 0.2863,
      "pct_pop_at_risk": 0.08,
      "vulnerability_index": 0.2949,
      "lat": 3.8030957478105782,
      "lon": 72.84207640252824
    },
    {
      "island_name": "Felidhoo",
      "atoll": "Vaavu",
      "population": 890,
      "area_km2": 1.033,
      "pct_inundated": 23.88,
      "pop_at_risk": 237,
      "area_inundated_km2": 0.2493,
      "pct_pop_at_risk": 0.05,
      "vulnerability_index": 0.2987,
      "lat": 3.387622718172526,
      "lon": 73.46200498235692
    },
    {
      "island_name": "Fulidhoo",
      "atoll": "Vaavu",
      "population": 2947,
      "area_km2": 2.3854,
      "pct_inundated": 23.61,
      "pop_at_risk": 773,
      "area_inundated_km2": 0.5692,
      "pct_pop_at_risk": 0.16,
      "vulnerability_index": 0.2653,
      "lat": 3.5294666204320886,
      "lon": 73.40302020279994
    },
    {
      "island_name": "Keyodhoo",
      "atoll": "Vaavu",
      "population": 520,
      "area_km2": 7.0423,
      "pct_inundated": 24.12,
      "pop_at_risk": 139,
      "area_inundated_km2": 1.7167,
      "pct_pop_at_risk": 0.03,
      "vulnerability_index": 0.1457,
      "lat": 3.4464593185569297,
      "lon": 73.60617901835502
    },
    {
      "island_name": "Rakeedhoo",
      "atoll": "Vaavu",
      "population": 100,
      "area_km2": 4.2381,
      "pct_inundated": 15,
      "pop_at_risk": 17,
      "area_inundated_km2": 0.6425,
      "pct_pop_at_risk": 0,
      "vulnerability_index": 0.1713,
      "lat": 3.250138362962785,
      "lon": 73.35227832365834
    },
    {
      "island_name": "Thinadhoo",
      "atoll": "Vaavu",
      "population": 520,
      "area_km2": 5.1969,
      "pct_inundated": 20.58,
      "pop_at_risk": 119,
      "area_inundated_km2": 1.0809,
      "pct_pop_at_risk": 0.02,
      "vulnerability_index": 0.1752,
      "lat": 0.20364335543793705,
      "lon": 72.95061673168108
    },
    {
      "island_name": "Vaavu Island 06",
      "atoll": "Vaavu",
      "population": 418,
      "area_km2": 0.8369,
      "pct_inundated": 22.11,
      "pop_at_risk": 102,
      "area_inundated_km2": 0.187,
      "pct_pop_at_risk": 0.02,
      "vulnerability_index": 0.2943,
      "lat": 3.578693667782632,
      "lon": 73.44124926661402
    },
    {
      "island_name": "Vaavu Island 07",
      "atoll": "Vaavu",
      "population": 1224,
      "area_km2": 0.6405,
      "pct_inundated": 15.63,
      "pop_at_risk": 212,
      "area_inundated_km2": 0.1012,
      "pct_pop_at_risk": 0.04,
      "vulnerability_index": 0.2679,
      "lat": 3.540769571319867,
      "lon": 73.43626177711093
    },
    {
      "island_name": "Muli",
      "atoll": "Meemu",
      "population": 2500,
      "area_km2": 2.3997,
      "pct_inundated": 22.77,
      "pop_at_risk": 632,
      "area_inundated_km2": 0.5522,
      "pct_pop_at_risk": 0.13,
      "vulnerability_index": 0.2602,
      "lat": 2.822505579533173,
      "lon": 73.5331286583755
    },
    {
      "island_name": "Dhiggaru",
      "atoll": "Meemu",
      "population": 271,
      "area_km2": 1.2934,
      "pct_inundated": 21.18,
      "pop_at_risk": 63,
      "area_inundated_km2": 0.2768,
      "pct_pop_at_risk": 0.01,
      "vulnerability_index": 0.2778,
      "lat": 3.143673989547806,
      "lon": 73.5687950116626
    },
    {
      "island_name": "Kolhufushi",
      "atoll": "Meemu",
      "population": 649,
      "area_km2": 8,
      "pct_inundated": 21.27,
      "pop_at_risk": 153,
      "area_inundated_km2": 1.7198,
      "pct_pop_at_risk": 0.03,
      "vulnerability_index": 0.1072,
      "lat": 2.905004031806021,
      "lon": 73.48530677557814
    },
    {
      "island_name": "Maduvvari",
      "atoll": "Meemu",
      "population": 658,
      "area_km2": 2.8976,
      "pct_inundated": 21.27,
      "pop_at_risk": 155,
      "area_inundated_km2": 0.6229,
      "pct_pop_at_risk": 0.03,
      "vulnerability_index": 0.2377,
      "lat": 3.0821503070956444,
      "lon": 73.48816263101486
    },
    {
      "island_name": "Mulah",
      "atoll": "Meemu",
      "population": 228,
      "area_km2": 0.6103,
      "pct_inundated": 23.61,
      "pop_at_risk": 60,
      "area_inundated_km2": 0.1456,
      "pct_pop_at_risk": 0.01,
      "vulnerability_index": 0.3073,
      "lat": 2.8431289911486974,
      "lon": 73.371287161792
    },
    {
      "island_name": "Naalaafushi",
      "atoll": "Meemu",
      "population": 672,
      "area_km2": 8,
      "pct_inundated": 21.78,
      "pop_at_risk": 162,
      "area_inundated_km2": 1.761,
      "pct_pop_at_risk": 0.03,
      "vulnerability_index": 0.1097,
      "lat": 2.8564616180272915,
      "lon": 73.43934960548984
    },
    {
      "island_name": "Raimandhoo",
      "atoll": "Meemu",
      "population": 170,
      "area_km2": 3.7756,
      "pct_inundated": 17.31,
      "pop_at_risk": 32,
      "area_inundated_km2": 0.6606,
      "pct_pop_at_risk": 0.01,
      "vulnerability_index": 0.1948,
      "lat": 3.0528876068775745,
      "lon": 73.41611077440113
    },
    {
      "island_name": "Veyvah",
      "atoll": "Meemu",
      "population": 1978,
      "area_km2": 5.1582,
      "pct_inundated": 24.21,
      "pop_at_risk": 532,
      "area_inundated_km2": 1.2621,
      "pct_pop_at_risk": 0.11,
      "vulnerability_index": 0.1962,
      "lat": 3.078566295078156,
      "lon": 73.42996111523358
    },
    {
      "island_name": "Meemu Island 09",
      "atoll": "Meemu",
      "population": 220,
      "area_km2": 1.8847,
      "pct_inundated": 22.26,
      "pop_at_risk": 54,
      "area_inundated_km2": 0.424,
      "pct_pop_at_risk": 0.01,
      "vulnerability_index": 0.268,
      "lat": 2.925939055200652,
      "lon": 73.53766265164307
    },
    {
      "island_name": "Meemu Island 10",
      "atoll": "Meemu",
      "population": 2430,
      "area_km2": 2.6844,
      "pct_inundated": 24.87,
      "pop_at_risk": 671,
      "area_inundated_km2": 0.6747,
      "pct_pop_at_risk": 0.14,
      "vulnerability_index": 0.2633,
      "lat": 2.8018122713202174,
      "lon": 73.43649479548598
    },
    {
      "island_name": "Nilandhoo",
      "atoll": "Faafu",
      "population": 67,
      "area_km2": 1.0819,
      "pct_inundated": 22.53,
      "pop_at_risk": 17,
      "area_inundated_km2": 0.2464,
      "pct_pop_at_risk": 0,
      "vulnerability_index": 0.2897,
      "lat": 2.9873389939282413,
      "lon": 73.09826573845889
    },
    {
      "island_name": "Bilehdhoo",
      "atoll": "Faafu",
      "population": 234,
      "area_km2": 1.6235,
      "pct_inundated": 23.7,
      "pop_at_risk": 61,
      "area_inundated_km2": 0.3889,
      "pct_pop_at_risk": 0.01,
      "vulnerability_index": 0.2819,
      "lat": 2.985681305112243,
      "lon": 73.0866850927441
    },
    {
      "island_name": "Dharanboodhoo",
      "atoll": "Faafu",
      "population": 1060,
      "area_km2": 2.8869,
      "pct_inundated": 19.5,
      "pop_at_risk": 230,
      "area_inundated_km2": 0.5689,
      "pct_pop_at_risk": 0.05,
      "vulnerability_index": 0.2296,
      "lat": 3.057536401682891,
      "lon": 72.97035822096987
    },
    {
      "island_name": "Feeali",
      "atoll": "Faafu",
      "population": 1400,
      "area_km2": 5.6992,
      "pct_inundated": 21.27,
      "pop_at_risk": 331,
      "area_inundated_km2": 1.2251,
      "pct_pop_at_risk": 0.07,
      "vulnerability_index": 0.1669,
      "lat": 2.856781671314217,
      "lon": 72.95636692909905
    },
    {
      "island_name": "Magoodhoo",
      "atoll": "Faafu",
      "population": 264,
      "area_km2": 8,
      "pct_inundated": 16.38,
      "pop_at_risk": 48,
      "area_inundated_km2": 1.3244,
      "pct_pop_at_risk": 0.01,
      "vulnerability_index": 0.0822,
      "lat": 2.9103438542015723,
      "lon": 73.03032678275609
    },
    {
      "island_name": "Faafu Island 06",
      "atoll": "Faafu",
      "population": 66,
      "area_km2": 4.4954,
      "pct_inundated": 23.79,
      "pop_at_risk": 18,
      "area_inundated_km2": 1.0809,
      "pct_pop_at_risk": 0,
      "vulnerability_index": 0.2087,
      "lat": 3.0112786066628243,
      "lon": 72.96536794171328
    },
    {
      "island_name": "Faafu Island 07",
      "atoll": "Faafu",
      "population": 175,
      "area_km2": 8,
      "pct_inundated": 24.03,
      "pop_at_risk": 47,
      "area_inundated_km2": 1.9429,
      "pct_pop_at_risk": 0.01,
      "vulnerability_index": 0.1204,
      "lat": 2.8538783612553678,
      "lon": 73.05062726506745
    },
    {
      "island_name": "Faafu Island 08",
      "atoll": "Faafu",
      "population": 416,
      "area_km2": 2.42,
      "pct_inundated": 19.59,
      "pop_at_risk": 90,
      "area_inundated_km2": 0.4792,
      "pct_pop_at_risk": 0.02,
      "vulnerability_index": 0.2412,
      "lat": 2.868151346016245,
      "lon": 73.04259011883815
    },
    {
      "island_name": "Faafu Island 09",
      "atoll": "Faafu",
      "population": 189,
      "area_km2": 8,
      "pct_inundated": 21.84,
      "pop_at_risk": 46,
      "area_inundated_km2": 1.7659,
      "pct_pop_at_risk": 0.01,
      "vulnerability_index": 0.1094,
      "lat": 2.875757095142211,
      "lon": 73.01023887994472
    },
    {
      "island_name": "Kudahuvadhoo",
      "atoll": "Dhaalu",
      "population": 619,
      "area_km2": 4.5815,
      "pct_inundated": 21.78,
      "pop_at_risk": 150,
      "area_inundated_km2": 1.0086,
      "pct_pop_at_risk": 0.03,
      "vulnerability_index": 0.1971,
      "lat": 2.69337416658955,
      "lon": 72.8717460382664
    },
    {
      "island_name": "Bandidhoo",
      "atoll": "Dhaalu",
      "population": 50,
      "area_km2": 3.5396,
      "pct_inundated": 24.03,
      "pop_at_risk": 13,
      "area_inundated_km2": 0.8597,
      "pct_pop_at_risk": 0,
      "vulnerability_index": 0.2343,
      "lat": 2.519736898136264,
      "lon": 72.89109235361477
    },
    {
      "island_name": "Gemendhoo",
      "atoll": "Dhaalu",
      "population": 1807,
      "area_km2": 8,
      "pct_inundated": 15.96,
      "pop_at_risk": 320,
      "area_inundated_km2": 1.2904,
      "pct_pop_at_risk": 0.07,
      "vulnerability_index": 0.0821,
      "lat": 2.7410370291771917,
      "lon": 72.89149370505277
    },
    {
      "island_name": "Hulhidhoo",
      "atoll": "Dhaalu",
      "population": 3670,
      "area_km2": 7.8393,
      "pct_inundated": 22.11,
      "pop_at_risk": 901,
      "area_inundated_km2": 1.7518,
      "pct_pop_at_risk": 0.18,
      "vulnerability_index": 0.1192,
      "lat": 2.881029256149435,
      "lon": 72.71265374368818
    },
    {
      "island_name": "Maaenboodhoo",
      "atoll": "Dhaalu",
      "population": 182,
      "area_km2": 1.3389,
      "pct_inundated": 22.62,
      "pop_at_risk": 46,
      "area_inundated_km2": 0.3061,
      "pct_pop_at_risk": 0.01,
      "vulnerability_index": 0.2837,
      "lat": 2.745951573142305,
      "lon": 72.87746242386696
    },
    {
      "island_name": "Meedhoo",
      "atoll": "Dhaalu",
      "population": 95,
      "area_km2": 6.6695,
      "pct_inundated": 22.26,
      "pop_at_risk": 23,
      "area_inundated_km2": 1.5005,
      "pct_pop_at_risk": 0,
      "vulnerability_index": 0.1454,
      "lat": -0.6275199080415815,
      "lon": 73.15553851495626
    },
    {
      "island_name": "Veymandoo",
      "atoll": "Thaa",
      "population": 116,
      "area_km2": 3.1246,
      "pct_inundated": 24.03,
      "pop_at_risk": 31,
      "area_inundated_km2": 0.7588,
      "pct_pop_at_risk": 0.01,
      "vulnerability_index": 0.245,
      "lat": 2.2246507727016347,
      "lon": 73.07239606006127
    },
    {
      "island_name": "Buruni",
      "atoll": "Thaa",
      "population": 195,
      "area_km2": 8,
      "pct_inundated": 24.54,
      "pop_at_risk": 53,
      "area_inundated_km2": 1.9842,
      "pct_pop_at_risk": 0.01,
      "vulnerability_index": 0.1229,
      "lat": 2.2505875166856186,
      "lon": 72.94490931962963
    },
    {
      "island_name": "Dhiyamigili",
      "atoll": "Thaa",
      "population": 483,
      "area_km2": 3.3109,
      "pct_inundated": 21.69,
      "pop_at_risk": 117,
      "area_inundated_km2": 0.7258,
      "pct_pop_at_risk": 0.02,
      "vulnerability_index": 0.229,
      "lat": 2.313952454450529,
      "lon": 73.06024837300886
    },
    {
      "island_name": "Gaadhiffushi",
      "atoll": "Thaa",
      "population": 429,
      "area_km2": 2.1708,
      "pct_inundated": 16.98,
      "pop_at_risk": 81,
      "area_inundated_km2": 0.3725,
      "pct_pop_at_risk": 0.02,
      "vulnerability_index": 0.2345,
      "lat": 2.320610320735865,
      "lon": 73.08349905177799
    },
    {
      "island_name": "Guraidhoo",
      "atoll": "Thaa",
      "population": 671,
      "area_km2": 8,
      "pct_inundated": 17.16,
      "pop_at_risk": 128,
      "area_inundated_km2": 1.3875,
      "pct_pop_at_risk": 0.03,
      "vulnerability_index": 0.0866,
      "lat": 2.3066042161678437,
      "lon": 73.14269861383194
    },
    {
      "island_name": "Hirilandhoo",
      "atoll": "Thaa",
      "population": 50,
      "area_km2": 1.3377,
      "pct_inundated": 23.52,
      "pop_at_risk": 13,
      "area_inundated_km2": 0.318,
      "pct_pop_at_risk": 0,
      "vulnerability_index": 0.2881,
      "lat": 2.348340416804035,
      "lon": 73.10893046810733
    },
    {
      "island_name": "Kinbidhoo",
      "atoll": "Thaa",
      "population": 780,
      "area_km2": 0.9684,
      "pct_inundated": 16.74,
      "pop_at_risk": 146,
      "area_inundated_km2": 0.1638,
      "pct_pop_at_risk": 0.03,
      "vulnerability_index": 0.2645,
      "lat": 2.0888006937547585,
      "lon": 73.10399179369071
    },
    {
      "island_name": "Madifushi",
      "atoll": "Thaa",
      "population": 104,
      "area_km2": 1.9726,
      "pct_inundated": 19.92,
      "pop_at_risk": 23,
      "area_inundated_km2": 0.3971,
      "pct_pop_at_risk": 0,
      "vulnerability_index": 0.2539,
      "lat": 2.3106441410516023,
      "lon": 72.98000899556325
    },
    {
      "island_name": "Omadhoo",
      "atoll": "Thaa",
      "population": 60,
      "area_km2": 1.0828,
      "pct_inundated": 24.87,
      "pop_at_risk": 17,
      "area_inundated_km2": 0.2722,
      "pct_pop_at_risk": 0,
      "vulnerability_index": 0.3013,
      "lat": 2.062133177838319,
      "lon": 72.90604480927718
    },
    {
      "island_name": "Fonadhoo",
      "atoll": "Laamu",
      "population": 8500,
      "area_km2": 1.219,
      "pct_inundated": 24.45,
      "pop_at_risk": 2308,
      "area_inundated_km2": 0.3012,
      "pct_pop_at_risk": 0.47,
      "vulnerability_index": 0.3063,
      "lat": 2.0605913164700826,
      "lon": 73.39845186565034
    },
    {
      "island_name": "Dhanbidhoo",
      "atoll": "Laamu",
      "population": 62,
      "area_km2": 2.4268,
      "pct_inundated": 24.54,
      "pop_at_risk": 17,
      "area_inundated_km2": 0.6019,
      "pct_pop_at_risk": 0,
      "vulnerability_index": 0.2653,
      "lat": 1.8735822261482435,
      "lon": 73.65570581772032
    },
    {
      "island_name": "Gaadhoo",
      "atoll": "Laamu",
      "population": 2305,
      "area_km2": 1.4168,
      "pct_inundated": 16.56,
      "pop_at_risk": 424,
      "area_inundated_km2": 0.2371,
      "pct_pop_at_risk": 0.09,
      "vulnerability_index": 0.254,
      "lat": 2.1824390371289195,
      "lon": 73.55348649016895
    },
    {
      "island_name": "Gan",
      "atoll": "Laamu",
      "population": 567,
      "area_km2": 8,
      "pct_inundated": 21.84,
      "pop_at_risk": 138,
      "area_inundated_km2": 1.7659,
      "pct_pop_at_risk": 0.03,
      "vulnerability_index": 0.1099,
      "lat": 1.8580657283910704,
      "lon": 73.65708547802807
    },
    {
      "island_name": "Hithadhoo",
      "atoll": "Laamu",
      "population": 1380,
      "area_km2": 3.7909,
      "pct_inundated": 19.68,
      "pop_at_risk": 302,
      "area_inundated_km2": 0.754,
      "pct_pop_at_risk": 0.06,
      "vulnerability_index": 0.2078,
      "lat": -0.40769157546052975,
      "lon": 73.07127565278701
    },
    {
      "island_name": "Isdhoo",
      "atoll": "Laamu",
      "population": 57,
      "area_km2": 0.8536,
      "pct_inundated": 21.27,
      "pop_at_risk": 13,
      "area_inundated_km2": 0.1835,
      "pct_pop_at_risk": 0,
      "vulnerability_index": 0.2892,
      "lat": 2.169347671225981,
      "lon": 73.46089003908236
    },
    {
      "island_name": "Kunahandhoo",
      "atoll": "Laamu",
      "population": 173,
      "area_km2": 6.4487,
      "pct_inundated": 24.36,
      "pop_at_risk": 47,
      "area_inundated_km2": 1.5877,
      "pct_pop_at_risk": 0.01,
      "vulnerability_index": 0.1617,
      "lat": 1.952605984395511,
      "lon": 73.49922598623652
    },
    {
      "island_name": "Vilingili",
      "atoll": "Gaafu Alifu",
      "population": 50,
      "area_km2": 8,
      "pct_inundated": 23.94,
      "pop_at_risk": 13,
      "area_inundated_km2": 1.9356,
      "pct_pop_at_risk": 0,
      "vulnerability_index": 0.1198,
      "lat": 0.728055230790762,
      "lon": 73.29593262019239
    },
    {
      "island_name": "Dhaandhoo",
      "atoll": "Gaafu Alifu",
      "population": 340,
      "area_km2": 3.5658,
      "pct_inundated": 21.69,
      "pop_at_risk": 82,
      "area_inundated_km2": 0.7817,
      "pct_pop_at_risk": 0.02,
      "vulnerability_index": 0.2223,
      "lat": 0.7460057871174081,
      "lon": 73.34016609014714
    },
    {
      "island_name": "Gemanafushi",
      "atoll": "Gaafu Alifu",
      "population": 345,
      "area_km2": 4.7489,
      "pct_inundated": 21.27,
      "pop_at_risk": 81,
      "area_inundated_km2": 1.0209,
      "pct_pop_at_risk": 0.02,
      "vulnerability_index": 0.1899,
      "lat": 0.8681805304643186,
      "lon": 73.17538579437542
    },
    {
      "island_name": "Kanduhulhudhoo",
      "atoll": "Gaafu Alifu",
      "population": 1367,
      "area_km2": 3.5554,
      "pct_inundated": 24.78,
      "pop_at_risk": 377,
      "area_inundated_km2": 0.8904,
      "pct_pop_at_risk": 0.08,
      "vulnerability_index": 0.2393,
      "lat": 0.6335543059472819,
      "lon": 73.02758731378186
    },
    {
      "island_name": "Kolamaafushi",
      "atoll": "Gaafu Alifu",
      "population": 1307,
      "area_km2": 1.1579,
      "pct_inundated": 21.93,
      "pop_at_risk": 319,
      "area_inundated_km2": 0.2566,
      "pct_pop_at_risk": 0.06,
      "vulnerability_index": 0.2863,
      "lat": 0.6753160801891508,
      "lon": 73.22070176877796
    },
    {
      "island_name": "Kondey",
      "atoll": "Gaafu Alifu",
      "population": 99,
      "area_km2": 3.1587,
      "pct_inundated": 24.87,
      "pop_at_risk": 28,
      "area_inundated_km2": 0.794,
      "pct_pop_at_risk": 0.01,
      "vulnerability_index": 0.2483,
      "lat": 0.516857426023776,
      "lon": 73.31735669383019
    },
    {
      "island_name": "Thinadhoo",
      "atoll": "Gaafu Dhaalu",
      "population": 7818,
      "area_km2": 7.6895,
      "pct_inundated": 20.58,
      "pop_at_risk": 1787,
      "area_inundated_km2": 1.5994,
      "pct_pop_at_risk": 0.36,
      "vulnerability_index": 0.1206,
      "lat": 0.20364335543793705,
      "lon": 72.95061673168108
    },
    {
      "island_name": "Faresmaathodaa",
      "atoll": "Gaafu Dhaalu",
      "population": 836,
      "area_km2": 3.7631,
      "pct_inundated": 22.62,
      "pop_at_risk": 210,
      "area_inundated_km2": 0.8603,
      "pct_pop_at_risk": 0.04,
      "vulnerability_index": 0.2225,
      "lat": 0.4160758617022251,
      "lon": 72.96802396709519
    },
    {
      "island_name": "Fiyoaree",
      "atoll": "Gaafu Dhaalu",
      "population": 192,
      "area_km2": 6.0857,
      "pct_inundated": 20.25,
      "pop_at_risk": 43,
      "area_inundated_km2": 1.2456,
      "pct_pop_at_risk": 0.01,
      "vulnerability_index": 0.1504,
      "lat": 0.20432688604442562,
      "lon": 73.10439923222978
    },
    {
      "island_name": "Gadhdhoo",
      "atoll": "Gaafu Dhaalu",
      "population": 259,
      "area_km2": 1.9112,
      "pct_inundated": 17.31,
      "pop_at_risk": 50,
      "area_inundated_km2": 0.3343,
      "pct_pop_at_risk": 0.01,
      "vulnerability_index": 0.2426,
      "lat": 0.1957933981078196,
      "lon": 73.30039486027098
    },
    {
      "island_name": "Hoadedhdhoo",
      "atoll": "Gaafu Dhaalu",
      "population": 246,
      "area_km2": 6.1511,
      "pct_inundated": 22.86,
      "pop_at_risk": 62,
      "area_inundated_km2": 1.4211,
      "pct_pop_at_risk": 0.01,
      "vulnerability_index": 0.1619,
      "lat": 0.39127973724186416,
      "lon": 73.19896619456097
    },
    {
      "island_name": "Madaveli",
      "atoll": "Gaafu Dhaalu",
      "population": 245,
      "area_km2": 1.5534,
      "pct_inundated": 20.1,
      "pop_at_risk": 54,
      "area_inundated_km2": 0.3155,
      "pct_pop_at_risk": 0.01,
      "vulnerability_index": 0.2657,
      "lat": 0.18829270509031898,
      "lon": 73.0093528119054
    },
    {
      "island_name": "Nadellaa",
      "atoll": "Gaafu Dhaalu",
      "population": 228,
      "area_km2": 4.2772,
      "pct_inundated": 21.51,
      "pop_at_risk": 54,
      "area_inundated_km2": 0.9298,
      "pct_pop_at_risk": 0.01,
      "vulnerability_index": 0.203,
      "lat": 0.35335942856114344,
      "lon": 73.09717411402315
    },
    {
      "island_name": "Fuvahmulah",
      "atoll": "Gnaviyani",
      "population": 12000,
      "area_km2": 2.5693,
      "pct_inundated": 16.5,
      "pop_at_risk": 2199,
      "area_inundated_km2": 0.4284,
      "pct_pop_at_risk": 0.45,
      "vulnerability_index": 0.2364,
      "lat": -0.2705318183802375,
      "lon": 73.43052004400653
    },
    {
      "island_name": "Gnaviyani Island 02",
      "atoll": "Gnaviyani",
      "population": 99,
      "area_km2": 5.1853,
      "pct_inundated": 24.96,
      "pop_at_risk": 28,
      "area_inundated_km2": 1.3081,
      "pct_pop_at_risk": 0.01,
      "vulnerability_index": 0.1969,
      "lat": -0.21659384583276553,
      "lon": 73.36883161333827
    },
    {
      "island_name": "Gnaviyani Island 03",
      "atoll": "Gnaviyani",
      "population": 50,
      "area_km2": 1.5615,
      "pct_inundated": 18,
      "pop_at_risk": 10,
      "area_inundated_km2": 0.2841,
      "pct_pop_at_risk": 0,
      "vulnerability_index": 0.2547,
      "lat": -0.2528513460775957,
      "lon": 73.48139031439354
    },
    {
      "island_name": "Gnaviyani Island 04",
      "atoll": "Gnaviyani",
      "population": 106,
      "area_km2": 2.3164,
      "pct_inundated": 23.28,
      "pop_at_risk": 28,
      "area_inundated_km2": 0.5451,
      "pct_pop_at_risk": 0.01,
      "vulnerability_index": 0.2619,
      "lat": -0.34204714675248765,
      "lon": 73.49461190568856
    },
    {
      "island_name": "Gnaviyani Island 05",
      "atoll": "Gnaviyani",
      "population": 153,
      "area_km2": 2.345,
      "pct_inundated": 21.78,
      "pop_at_risk": 37,
      "area_inundated_km2": 0.5162,
      "pct_pop_at_risk": 0.01,
      "vulnerability_index": 0.2537,
      "lat": -0.23003721903777619,
      "lon": 73.39445979959434
    },
    {
      "island_name": "Gnaviyani Island 06",
      "atoll": "Gnaviyani",
      "population": 50,
      "area_km2": 2.0801,
      "pct_inundated": 21.93,
      "pop_at_risk": 12,
      "area_inundated_km2": 0.4611,
      "pct_pop_at_risk": 0,
      "vulnerability_index": 0.2611,
      "lat": -0.24360943096541088,
      "lon": 73.47972168464439
    },
    {
      "island_name": "Gnaviyani Island 07",
      "atoll": "Gnaviyani",
      "population": 237,
      "area_km2": 1.6994,
      "pct_inundated": 18.84,
      "pop_at_risk": 50,
      "area_inundated_km2": 0.3236,
      "pct_pop_at_risk": 0.01,
      "vulnerability_index": 0.2556,
      "lat": -0.32403558288329176,
      "lon": 73.35906842947217
    },
    {
      "island_name": "Gnaviyani Island 08",
      "atoll": "Gnaviyani",
      "population": 144,
      "area_km2": 3.43,
      "pct_inundated": 23.19,
      "pop_at_risk": 37,
      "area_inundated_km2": 0.8039,
      "pct_pop_at_risk": 0.01,
      "vulnerability_index": 0.233,
      "lat": -0.2715432167801874,
      "lon": 73.36662499788603
    },
    {
      "island_name": "Gnaviyani Island 09",
      "atoll": "Gnaviyani",
      "population": 184,
      "area_km2": 4.7816,
      "pct_inundated": 24.96,
      "pop_at_risk": 51,
      "area_inundated_km2": 1.2062,
      "pct_pop_at_risk": 0.01,
      "vulnerability_index": 0.2073,
      "lat": -0.26052141395875283,
      "lon": 73.38840776692108
    },
    {
      "island_name": "Gnaviyani Island 10",
      "atoll": "Gnaviyani",
      "population": 192,
      "area_km2": 1.7116,
      "pct_inundated": 20.58,
      "pop_at_risk": 44,
      "area_inundated_km2": 0.356,
      "pct_pop_at_risk": 0.01,
      "vulnerability_index": 0.264,
      "lat": -0.28656435386197743,
      "lon": 73.35569800441286
    },
    {
      "island_name": "Gnaviyani Island 11",
      "atoll": "Gnaviyani",
      "population": 81,
      "area_km2": 3.6644,
      "pct_inundated": 18.48,
      "pop_at_risk": 17,
      "area_inundated_km2": 0.6844,
      "pct_pop_at_risk": 0,
      "vulnerability_index": 0.2034,
      "lat": -0.24200118448166202,
      "lon": 73.36835866962055
    },
    {
      "island_name": "Hithadhoo",
      "atoll": "Seenu",
      "population": 27892,
      "area_km2": 1.8844,
      "pct_inundated": 21.6,
      "pop_at_risk": 6692,
      "area_inundated_km2": 0.4113,
      "pct_pop_at_risk": 1.36,
      "vulnerability_index": 0.2993,
      "lat": -0.40769157546052975,
      "lon": 73.07127565278701
    },
    {
      "island_name": "Feydhoo",
      "atoll": "Seenu",
      "population": 2500,
      "area_km2": 8,
      "pct_inundated": 15.81,
      "pop_at_risk": 439,
      "area_inundated_km2": 1.2783,
      "pct_pop_at_risk": 0.09,
      "vulnerability_index": 0.0822,
      "lat": -0.5992875377413089,
      "lon": 73.14323906577035
    },
    {
      "island_name": "Maradhoo",
      "atoll": "Seenu",
      "population": 491,
      "area_km2": 7.0189,
      "pct_inundated": 16.74,
      "pop_at_risk": 91,
      "area_inundated_km2": 1.1875,
      "pct_pop_at_risk": 0.02,
      "vulnerability_index": 0.1094,
      "lat": -0.746689563080829,
      "lon": 73.18219805365247
    },
    {
      "island_name": "Meedhoo",
      "atoll": "Seenu",
      "population": 6000,
      "area_km2": 2.4384,
      "pct_inundated": 22.26,
      "pop_at_risk": 1484,
      "area_inundated_km2": 0.5486,
      "pct_pop_at_risk": 0.3,
      "vulnerability_index": 0.261,
      "lat": -0.6275199080415815,
      "lon": 73.15553851495626
    },
    {
      "island_name": "Hulhumeedhoo",
      "atoll": "Seenu",
      "population": 149,
      "area_km2": 6.7704,
      "pct_inundated": 22.77,
      "pop_at_risk": 38,
      "area_inundated_km2": 1.5581,
      "pct_pop_at_risk": 0.01,
      "vulnerability_index": 0.1455,
      "lat": -0.7126478905702587,
      "lon": 73.28435135510152
    },
    {
      "island_name": "Seenu Island 06",
      "atoll": "Seenu",
      "population": 865,
      "area_km2": 5.4215,
      "pct_inundated": 20.34,
      "pop_at_risk": 195,
      "area_inundated_km2": 1.1145,
      "pct_pop_at_risk": 0.04,
      "vulnerability_index": 0.1687,
      "lat": -0.43319718389147827,
      "lon": 73.1398413063469
    },
    {
      "island_name": "Seenu Island 07",
      "atoll": "Seenu",
      "population": 175,
      "area_km2": 0.7238,
      "pct_inundated": 15.72,
      "pop_at_risk": 31,
      "area_inundated_km2": 0.115,
      "pct_pop_at_risk": 0.01,
      "vulnerability_index": 0.2649,
      "lat": -0.6359386814259782,
      "lon": 73.32552571491699
    },
    {
      "island_name": "Seenu Island 08",
      "atoll": "Seenu",
      "population": 120,
      "area_km2": 8,
      "pct_inundated": 23.04,
      "pop_at_risk": 31,
      "area_inundated_km2": 1.8629,
      "pct_pop_at_risk": 0.01,
      "vulnerability_index": 0.1154,
      "lat": -0.7373246010712639,
      "lon": 72.97187391324478
    },
    {
      "island_name": "Seenu Island 09",
      "atoll": "Seenu",
      "population": 57,
      "area_km2": 8,
      "pct_inundated": 23.46,
      "pop_at_risk": 14,
      "area_inundated_km2": 1.8968,
      "pct_pop_at_risk": 0,
      "vulnerability_index": 0.1174,
      "lat": -0.4148845819441798,
      "lon": 73.25872951063997
    },
    {
      "island_name": "Seenu Island 10",
      "atoll": "Seenu",
      "population": 50,
      "area_km2": 7.127,
      "pct_inundated": 21.69,
      "pop_at_risk": 12,
      "area_inundated_km2": 1.5623,
      "pct_pop_at_risk": 0,
      "vulnerability_index": 0.1308,
      "lat": -0.45702473645960556,
      "lon": 73.22257088177665
    },
    {
      "island_name": "Feevah",
      "atoll": "Shaviyani",
      "population": 312,
      "area_km2": 0.18,
      "pct_inundated": 22.44,
      "pop_at_risk": 78,
      "area_inundated_km2": 0.0408,
      "pct_pop_at_risk": 0.02,
      "vulnerability_index": 0.3126,
      "lat": 6.041392326230284,
      "lon": 73.01002263337249
    },
    {
      "island_name": "Maaungoodhoo",
      "atoll": "Shaviyani",
      "population": 891,
      "area_km2": 0.31,
      "pct_inundated": 22.68,
      "pop_at_risk": 224,
      "area_inundated_km2": 0.0711,
      "pct_pop_at_risk": 0.05,
      "vulnerability_index": 0.3112,
      "lat": 5.9625808122053146,
      "lon": 73.02452939555029
    },
    {
      "island_name": "Bileffahi",
      "atoll": "Shaviyani",
      "population": 1240,
      "area_km2": 0.43,
      "pct_inundated": 17.07,
      "pop_at_risk": 235,
      "area_inundated_km2": 0.0742,
      "pct_pop_at_risk": 0.05,
      "vulnerability_index": 0.2805,
      "lat": 6.165957102777828,
      "lon": 73.02534530251256
    }
  ],
  "SSP1-2.6_2100": [
    {
      "island_name": "Dhidhdhoo",
      "atoll": "Haa Alif",
      "population": 223,
      "area_km2": 2.4815,
      "pct_inundated": 25.8,
      "pop_at_risk": 64,
      "area_inundated_km2": 0.647,
      "pct_pop_at_risk": 0.01,
      "vulnerability_index": 0.2704,
      "lat": 3.8108080129862785,
      "lon": 72.902181176737
    },
    {
      "island_name": "Baarah",
      "atoll": "Haa Alif",
      "population": 57,
      "area_km2": 2.6986,
      "pct_inundated": 28.45,
      "pop_at_risk": 18,
      "area_inundated_km2": 0.776,
      "pct_pop_at_risk": 0,
      "vulnerability_index": 0.2779,
      "lat": 6.7799425547895815,
      "lon": 73.01593779948678
    },
    {
      "island_name": "Filladhoo",
      "atoll": "Haa Alif",
      "population": 824,
      "area_km2": 2.3856,
      "pct_inundated": 26.05,
      "pop_at_risk": 239,
      "area_inundated_km2": 0.628,
      "pct_pop_at_risk": 0.05,
      "vulnerability_index": 0.2749,
      "lat": 6.648366987681567,
      "lon": 73.19361722427271
    },
    {
      "island_name": "Hoarafushi",
      "atoll": "Haa Alif",
      "population": 788,
      "area_km2": 0.5645,
      "pct_inundated": 38.8,
      "pop_at_risk": 340,
      "area_inundated_km2": 0.2213,
      "pct_pop_at_risk": 0.07,
      "vulnerability_index": 0.3852,
      "lat": 6.596497801620629,
      "lon": 73.06194850884191
    },
    {
      "island_name": "Ihavandhoo",
      "atoll": "Haa Alif",
      "population": 116,
      "area_km2": 3.2068,
      "pct_inundated": 39.65,
      "pop_at_risk": 51,
      "area_inundated_km2": 1.2851,
      "pct_pop_at_risk": 0.01,
      "vulnerability_index": 0.321,
      "lat": 6.720366234954066,
      "lon": 72.90536890304772
    },
    {
      "island_name": "Kelaa",
      "atoll": "Haa Alif",
      "population": 1300,
      "area_km2": 2.3896,
      "pct_inundated": 26.2,
      "pop_at_risk": 379,
      "area_inundated_km2": 0.6328,
      "pct_pop_at_risk": 0.08,
      "vulnerability_index": 0.2761,
      "lat": 7.056366887701761,
      "lon": 73.05579549116217
    },
    {
      "island_name": "Maarandhoo",
      "atoll": "Haa Alif",
      "population": 479,
      "area_km2": 5.4021,
      "pct_inundated": 36.4,
      "pop_at_risk": 193,
      "area_inundated_km2": 1.9874,
      "pct_pop_at_risk": 0.04,
      "vulnerability_index": 0.249,
      "lat": 6.629576587229868,
      "lon": 73.04005976306276
    },
    {
      "island_name": "Kulhudhuffushi",
      "atoll": "Haa Dhaalu",
      "population": 12000,
      "area_km2": 2.4343,
      "pct_inundated": 25.1,
      "pop_at_risk": 3346,
      "area_inundated_km2": 0.6175,
      "pct_pop_at_risk": 0.68,
      "vulnerability_index": 0.2828,
      "lat": 6.524997613433515,
      "lon": 73.13715797397009
    },
    {
      "island_name": "Hanimaadhoo",
      "atoll": "Haa Dhaalu",
      "population": 170,
      "area_km2": 8,
      "pct_inundated": 37.4,
      "pop_at_risk": 71,
      "area_inundated_km2": 3.0239,
      "pct_pop_at_risk": 0.01,
      "vulnerability_index": 0.1872,
      "lat": 6.268247259866504,
      "lon": 72.93815372374098
    },
    {
      "island_name": "Finey",
      "atoll": "Haa Dhaalu",
      "population": 50,
      "area_km2": 3.4382,
      "pct_inundated": 33.2,
      "pop_at_risk": 19,
      "area_inundated_km2": 1.1537,
      "pct_pop_at_risk": 0,
      "vulnerability_index": 0.2827,
      "lat": 6.3732927648172,
      "lon": 72.91165716372468
    },
    {
      "island_name": "Kumundhoo",
      "atoll": "Haa Dhaalu",
      "population": 176,
      "area_km2": 3.7946,
      "pct_inundated": 41.3,
      "pop_at_risk": 81,
      "area_inundated_km2": 1.5839,
      "pct_pop_at_risk": 0.02,
      "vulnerability_index": 0.3143,
      "lat": 6.3678793365061,
      "lon": 72.88015079075241
    },
    {
      "island_name": "Makunudhoo",
      "atoll": "Haa Dhaalu",
      "population": 439,
      "area_km2": 0.9866,
      "pct_inundated": 26.75,
      "pop_at_risk": 130,
      "area_inundated_km2": 0.2667,
      "pct_pop_at_risk": 0.03,
      "vulnerability_index": 0.3137,
      "lat": 6.454753514729616,
      "lon": 72.87284264395079
    },
    {
      "island_name": "Naivaadhoo",
      "atoll": "Haa Dhaalu",
      "population": 528,
      "area_km2": 4.5114,
      "pct_inundated": 28,
      "pop_at_risk": 164,
      "area_inundated_km2": 1.2767,
      "pct_pop_at_risk": 0.03,
      "vulnerability_index": 0.2299,
      "lat": 6.598280762624526,
      "lon": 73.12333977452325
    },
    {
      "island_name": "Neykurendhoo",
      "atoll": "Haa Dhaalu",
      "population": 317,
      "area_km2": 2.4035,
      "pct_inundated": 37.95,
      "pop_at_risk": 133,
      "area_inundated_km2": 0.9218,
      "pct_pop_at_risk": 0.03,
      "vulnerability_index": 0.3333,
      "lat": 6.5592881157783065,
      "lon": 72.92150269499317
    },
    {
      "island_name": "Nolhivaranfaru",
      "atoll": "Haa Dhaalu",
      "population": 311,
      "area_km2": 3.354,
      "pct_inundated": 33.35,
      "pop_at_risk": 116,
      "area_inundated_km2": 1.1305,
      "pct_pop_at_risk": 0.02,
      "vulnerability_index": 0.286,
      "lat": 6.31509330098403,
      "lon": 72.85807343363018
    },
    {
      "island_name": "Nolhivaram",
      "atoll": "Haa Dhaalu",
      "population": 517,
      "area_km2": 8,
      "pct_inundated": 38.4,
      "pop_at_risk": 221,
      "area_inundated_km2": 3.1048,
      "pct_pop_at_risk": 0.04,
      "vulnerability_index": 0.1926,
      "lat": 6.316161374087948,
      "lon": 73.01611590768819
    },
    {
      "island_name": "Vaikaradhoo",
      "atoll": "Haa Dhaalu",
      "population": 851,
      "area_km2": 1.3786,
      "pct_inundated": 41.2,
      "pop_at_risk": 390,
      "area_inundated_km2": 0.5741,
      "pct_pop_at_risk": 0.08,
      "vulnerability_index": 0.3764,
      "lat": 6.313004418093014,
      "lon": 73.07425055425247
    },
    {
      "island_name": "Nellaidhoo",
      "atoll": "Haa Dhaalu",
      "population": 2032,
      "area_km2": 1.7814,
      "pct_inundated": 29.15,
      "pop_at_risk": 658,
      "area_inundated_km2": 0.5248,
      "pct_pop_at_risk": 0.13,
      "vulnerability_index": 0.3073,
      "lat": 6.545753892626556,
      "lon": 72.96197147597837
    },
    {
      "island_name": "Funadhoo",
      "atoll": "Shaviyani",
      "population": 3500,
      "area_km2": 2.9027,
      "pct_inundated": 33.75,
      "pop_at_risk": 1312,
      "area_inundated_km2": 0.9902,
      "pct_pop_at_risk": 0.27,
      "vulnerability_index": 0.3035,
      "lat": 6.0967332888154155,
      "lon": 73.13009687943386
    },
    {
      "island_name": "Goidhoo",
      "atoll": "Shaviyani",
      "population": 415,
      "area_km2": 1.7369,
      "pct_inundated": 36.3,
      "pop_at_risk": 168,
      "area_inundated_km2": 0.6372,
      "pct_pop_at_risk": 0.03,
      "vulnerability_index": 0.3422,
      "lat": 5.159886139039855,
      "lon": 73.00243383827676
    },
    {
      "island_name": "Komandoo",
      "atoll": "Shaviyani",
      "population": 153,
      "area_km2": 0.3997,
      "pct_inundated": 35.3,
      "pop_at_risk": 60,
      "area_inundated_km2": 0.1426,
      "pct_pop_at_risk": 0.01,
      "vulnerability_index": 0.3711,
      "lat": 5.985817406253381,
      "lon": 73.07920094929385
    },
    {
      "island_name": "Narudhoo",
      "atoll": "Shaviyani",
      "population": 2330,
      "area_km2": 3.3435,
      "pct_inundated": 33.6,
      "pop_at_risk": 870,
      "area_inundated_km2": 1.1354,
      "pct_pop_at_risk": 0.18,
      "vulnerability_index": 0.29,
      "lat": 6.089552262946859,
      "lon": 73.00402738541692
    },
    {
      "island_name": "Feydhoo",
      "atoll": "Shaviyani",
      "population": 1032,
      "area_km2": 6.6971,
      "pct_inundated": 26.35,
      "pop_at_risk": 302,
      "area_inundated_km2": 1.7835,
      "pct_pop_at_risk": 0.06,
      "vulnerability_index": 0.1664,
      "lat": -0.5992875377413089,
      "lon": 73.14323906577035
    },
    {
      "island_name": "Maroshi",
      "atoll": "Shaviyani",
      "population": 556,
      "area_km2": 1.0774,
      "pct_inundated": 28,
      "pop_at_risk": 173,
      "area_inundated_km2": 0.3049,
      "pct_pop_at_risk": 0.04,
      "vulnerability_index": 0.3177,
      "lat": 5.903880948935142,
      "lon": 73.00927018887812
    },
    {
      "island_name": "Kanditheemu",
      "atoll": "Shaviyani",
      "population": 185,
      "area_km2": 2.5205,
      "pct_inundated": 39.1,
      "pop_at_risk": 80,
      "area_inundated_km2": 0.996,
      "pct_pop_at_risk": 0.02,
      "vulnerability_index": 0.3359,
      "lat": 5.978921936517331,
      "lon": 72.96626404005016
    },
    {
      "island_name": "Foakaidhoo",
      "atoll": "Shaviyani",
      "population": 771,
      "area_km2": 2.2838,
      "pct_inundated": 33.75,
      "pop_at_risk": 289,
      "area_inundated_km2": 0.779,
      "pct_pop_at_risk": 0.06,
      "vulnerability_index": 0.3159,
      "lat": 6.0431871906838355,
      "lon": 73.19954969297386
    },
    {
      "island_name": "Lhaimagu",
      "atoll": "Shaviyani",
      "population": 1592,
      "area_km2": 3.616,
      "pct_inundated": 35.15,
      "pop_at_risk": 622,
      "area_inundated_km2": 1.2846,
      "pct_pop_at_risk": 0.13,
      "vulnerability_index": 0.2899,
      "lat": 6.084832683830716,
      "lon": 73.21194755476013
    },
    {
      "island_name": "Milandhoo",
      "atoll": "Shaviyani",
      "population": 425,
      "area_km2": 1.5866,
      "pct_inundated": 31.5,
      "pop_at_risk": 149,
      "area_inundated_km2": 0.5051,
      "pct_pop_at_risk": 0.03,
      "vulnerability_index": 0.3221,
      "lat": 6.03394067620019,
      "lon": 73.06710628776744
    },
    {
      "island_name": "Nalandhoo",
      "atoll": "Shaviyani",
      "population": 787,
      "area_km2": 4.9393,
      "pct_inundated": 33.5,
      "pop_at_risk": 293,
      "area_inundated_km2": 1.6724,
      "pct_pop_at_risk": 0.06,
      "vulnerability_index": 0.2468,
      "lat": 6.181768359495739,
      "lon": 73.00237505839961
    },
    {
      "island_name": "Manadhoo",
      "atoll": "Noonu",
      "population": 107,
      "area_km2": 1.7408,
      "pct_inundated": 32.1,
      "pop_at_risk": 38,
      "area_inundated_km2": 0.5648,
      "pct_pop_at_risk": 0.01,
      "vulnerability_index": 0.3207,
      "lat": 5.780173178850713,
      "lon": 73.3778505177884
    },
    {
      "island_name": "Fodhdhoo",
      "atoll": "Noonu",
      "population": 227,
      "area_km2": 8,
      "pct_inundated": 26.05,
      "pop_at_risk": 66,
      "area_inundated_km2": 2.1062,
      "pct_pop_at_risk": 0.01,
      "vulnerability_index": 0.1305,
      "lat": 5.761471766608644,
      "lon": 73.41418768063052
    },
    {
      "island_name": "Holhudhoo",
      "atoll": "Noonu",
      "population": 540,
      "area_km2": 1.5362,
      "pct_inundated": 41.3,
      "pop_at_risk": 248,
      "area_inundated_km2": 0.6413,
      "pct_pop_at_risk": 0.05,
      "vulnerability_index": 0.3725,
      "lat": 5.841601050724648,
      "lon": 73.29603012311179
    },
    {
      "island_name": "Kendhikulhudhoo",
      "atoll": "Noonu",
      "population": 593,
      "area_km2": 2.6957,
      "pct_inundated": 29.4,
      "pop_at_risk": 193,
      "area_inundated_km2": 0.801,
      "pct_pop_at_risk": 0.04,
      "vulnerability_index": 0.2834,
      "lat": 5.767186374291122,
      "lon": 73.19401678053988
    },
    {
      "island_name": "Kudafari",
      "atoll": "Noonu",
      "population": 207,
      "area_km2": 8,
      "pct_inundated": 40.35,
      "pop_at_risk": 93,
      "area_inundated_km2": 3.2625,
      "pct_pop_at_risk": 0.02,
      "vulnerability_index": 0.202,
      "lat": 5.938925528418954,
      "lon": 73.440254575559
    },
    {
      "island_name": "Landhoo",
      "atoll": "Noonu",
      "population": 299,
      "area_km2": 3.4813,
      "pct_inundated": 34.2,
      "pop_at_risk": 113,
      "area_inundated_km2": 1.2033,
      "pct_pop_at_risk": 0.02,
      "vulnerability_index": 0.2869,
      "lat": 5.771027484121972,
      "lon": 73.39211930117852
    },
    {
      "island_name": "Lhohi",
      "atoll": "Noonu",
      "population": 264,
      "area_km2": 3.858,
      "pct_inundated": 39.8,
      "pop_at_risk": 117,
      "area_inundated_km2": 1.5519,
      "pct_pop_at_risk": 0.02,
      "vulnerability_index": 0.3053,
      "lat": 5.7891269603951665,
      "lon": 73.4843897297942
    },
    {
      "island_name": "Maafaru",
      "atoll": "Noonu",
      "population": 104,
      "area_km2": 1.697,
      "pct_inundated": 25.5,
      "pop_at_risk": 30,
      "area_inundated_km2": 0.4373,
      "pct_pop_at_risk": 0.01,
      "vulnerability_index": 0.2888,
      "lat": 5.76553962047108,
      "lon": 73.35070058802391
    },
    {
      "island_name": "Magoodhoo",
      "atoll": "Noonu",
      "population": 2199,
      "area_km2": 1.6274,
      "pct_inundated": 27.3,
      "pop_at_risk": 666,
      "area_inundated_km2": 0.449,
      "pct_pop_at_risk": 0.14,
      "vulnerability_index": 0.3022,
      "lat": 2.9103438542015723,
      "lon": 73.03032678275609
    },
    {
      "island_name": "Miladhoo",
      "atoll": "Noonu",
      "population": 192,
      "area_km2": 4.3193,
      "pct_inundated": 30.4,
      "pop_at_risk": 64,
      "area_inundated_km2": 1.3271,
      "pct_pop_at_risk": 0.01,
      "vulnerability_index": 0.2464,
      "lat": 5.809744880641751,
      "lon": 73.2486073937613
    },
    {
      "island_name": "Velidhoo",
      "atoll": "Noonu",
      "population": 79,
      "area_km2": 0.6085,
      "pct_inundated": 30.1,
      "pop_at_risk": 27,
      "area_inundated_km2": 0.1852,
      "pct_pop_at_risk": 0.01,
      "vulnerability_index": 0.3396,
      "lat": 5.854726860289166,
      "lon": 73.11107045589272
    },
    {
      "island_name": "Noonu Island 12",
      "atoll": "Noonu",
      "population": 145,
      "area_km2": 4.6093,
      "pct_inundated": 37,
      "pop_at_risk": 60,
      "area_inundated_km2": 1.7236,
      "pct_pop_at_risk": 0.01,
      "vulnerability_index": 0.2719,
      "lat": 5.79067886544873,
      "lon": 73.29554250822298
    },
    {
      "island_name": "Noonu Island 13",
      "atoll": "Noonu",
      "population": 65,
      "area_km2": 2.222,
      "pct_inundated": 36.55,
      "pop_at_risk": 27,
      "area_inundated_km2": 0.8208,
      "pct_pop_at_risk": 0.01,
      "vulnerability_index": 0.3306,
      "lat": 5.779141803220646,
      "lon": 73.37725595959398
    },
    {
      "island_name": "Ugoofaaru",
      "atoll": "Raa",
      "population": 725,
      "area_km2": 1.5024,
      "pct_inundated": 25.1,
      "pop_at_risk": 202,
      "area_inundated_km2": 0.3811,
      "pct_pop_at_risk": 0.04,
      "vulnerability_index": 0.2926,
      "lat": 5.479776702839829,
      "lon": 72.8106907381701
    },
    {
      "island_name": "Alifushi",
      "atoll": "Raa",
      "population": 50,
      "area_km2": 1.7421,
      "pct_inundated": 29,
      "pop_at_risk": 16,
      "area_inundated_km2": 0.5106,
      "pct_pop_at_risk": 0,
      "vulnerability_index": 0.3051,
      "lat": 5.5588513276909595,
      "lon": 72.90059042072403
    },
    {
      "island_name": "Dhuvaafaru",
      "atoll": "Raa",
      "population": 109,
      "area_km2": 1.1358,
      "pct_inundated": 36.85,
      "pop_at_risk": 44,
      "area_inundated_km2": 0.423,
      "pct_pop_at_risk": 0.01,
      "vulnerability_index": 0.3599,
      "lat": 5.683859943105807,
      "lon": 72.86611537124638
    },
    {
      "island_name": "Fainu",
      "atoll": "Raa",
      "population": 50,
      "area_km2": 2.5821,
      "pct_inundated": 40.9,
      "pop_at_risk": 22,
      "area_inundated_km2": 1.0674,
      "pct_pop_at_risk": 0,
      "vulnerability_index": 0.3431,
      "lat": 5.593198691446613,
      "lon": 72.94623248841293
    },
    {
      "island_name": "Hulhudhuffaaru",
      "atoll": "Raa",
      "population": 552,
      "area_km2": 1.8093,
      "pct_inundated": 31.4,
      "pop_at_risk": 192,
      "area_inundated_km2": 0.5742,
      "pct_pop_at_risk": 0.04,
      "vulnerability_index": 0.316,
      "lat": 5.572286945994079,
      "lon": 72.82314121304618
    },
    {
      "island_name": "Innamaadhoo",
      "atoll": "Raa",
      "population": 1804,
      "area_km2": 8,
      "pct_inundated": 40.2,
      "pop_at_risk": 805,
      "area_inundated_km2": 3.2503,
      "pct_pop_at_risk": 0.16,
      "vulnerability_index": 0.2033,
      "lat": 5.774233600118717,
      "lon": 72.8775197623478
    },
    {
      "island_name": "Kinolhas",
      "atoll": "Raa",
      "population": 1795,
      "area_km2": 1.124,
      "pct_inundated": 39.8,
      "pop_at_risk": 793,
      "area_inundated_km2": 0.4522,
      "pct_pop_at_risk": 0.16,
      "vulnerability_index": 0.3771,
      "lat": 5.797650287206669,
      "lon": 72.93858575945221
    },
    {
      "island_name": "Maakurathu",
      "atoll": "Raa",
      "population": 101,
      "area_km2": 3.9449,
      "pct_inundated": 41.05,
      "pop_at_risk": 46,
      "area_inundated_km2": 1.6367,
      "pct_pop_at_risk": 0.01,
      "vulnerability_index": 0.3091,
      "lat": 5.799589665792786,
      "lon": 73.08272606588032
    },
    {
      "island_name": "Meedhoo",
      "atoll": "Raa",
      "population": 2776,
      "area_km2": 1.8335,
      "pct_inundated": 37.1,
      "pop_at_risk": 1144,
      "area_inundated_km2": 0.6875,
      "pct_pop_at_risk": 0.23,
      "vulnerability_index": 0.3467,
      "lat": -0.6275199080415815,
      "lon": 73.15553851495626
    },
    {
      "island_name": "Rasgetheemu",
      "atoll": "Raa",
      "population": 821,
      "area_km2": 2.2712,
      "pct_inundated": 38.8,
      "pop_at_risk": 354,
      "area_inundated_km2": 0.8906,
      "pct_pop_at_risk": 0.07,
      "vulnerability_index": 0.3415,
      "lat": 5.715121421198156,
      "lon": 73.17792492387302
    },
    {
      "island_name": "Ungoofaaru",
      "atoll": "Raa",
      "population": 78,
      "area_km2": 4.4374,
      "pct_inundated": 35.3,
      "pop_at_risk": 31,
      "area_inundated_km2": 1.5831,
      "pct_pop_at_risk": 0.01,
      "vulnerability_index": 0.2677,
      "lat": 5.63809581050605,
      "lon": 72.9233174966004
    },
    {
      "island_name": "Vaadhoo",
      "atoll": "Raa",
      "population": 390,
      "area_km2": 4.0384,
      "pct_inundated": 37.1,
      "pop_at_risk": 161,
      "area_inundated_km2": 1.5142,
      "pct_pop_at_risk": 0.03,
      "vulnerability_index": 0.2873,
      "lat": 5.798495780862518,
      "lon": 73.08391293331141
    },
    {
      "island_name": "Raa Island 13",
      "atoll": "Raa",
      "population": 67,
      "area_km2": 1.7204,
      "pct_inundated": 39.35,
      "pop_at_risk": 29,
      "area_inundated_km2": 0.6842,
      "pct_pop_at_risk": 0.01,
      "vulnerability_index": 0.3574,
      "lat": 5.452704517183058,
      "lon": 72.88087089315077
    },
    {
      "island_name": "Eydhafushi",
      "atoll": "Baa",
      "population": 4500,
      "area_km2": 2.8777,
      "pct_inundated": 36.55,
      "pop_at_risk": 1827,
      "area_inundated_km2": 1.063,
      "pct_pop_at_risk": 0.37,
      "vulnerability_index": 0.3194,
      "lat": 4.929433182447552,
      "lon": 73.07182196922875
    },
    {
      "island_name": "Dhonfanu",
      "atoll": "Baa",
      "population": 50,
      "area_km2": 1.9316,
      "pct_inundated": 38.1,
      "pop_at_risk": 21,
      "area_inundated_km2": 0.7438,
      "pct_pop_at_risk": 0,
      "vulnerability_index": 0.3458,
      "lat": 5.224316873197518,
      "lon": 72.82824544795515
    },
    {
      "island_name": "Dharavandhoo",
      "atoll": "Baa",
      "population": 201,
      "area_km2": 2.6346,
      "pct_inundated": 28.15,
      "pop_at_risk": 63,
      "area_inundated_km2": 0.7495,
      "pct_pop_at_risk": 0.01,
      "vulnerability_index": 0.2782,
      "lat": 5.260435047084567,
      "lon": 72.8307769553109
    },
    {
      "island_name": "Fehendhoo",
      "atoll": "Baa",
      "population": 611,
      "area_km2": 2.9095,
      "pct_inundated": 26.6,
      "pop_at_risk": 181,
      "area_inundated_km2": 0.7822,
      "pct_pop_at_risk": 0.04,
      "vulnerability_index": 0.264,
      "lat": 4.920057454616776,
      "lon": 72.97179905380396
    },
    {
      "island_name": "Fulhadhoo",
      "atoll": "Baa",
      "population": 687,
      "area_km2": 4.0579,
      "pct_inundated": 27.05,
      "pop_at_risk": 207,
      "area_inundated_km2": 1.1094,
      "pct_pop_at_risk": 0.04,
      "vulnerability_index": 0.2369,
      "lat": 4.95893481617303,
      "lon": 72.92697107094037
    },
    {
      "island_name": "Goidhoo",
      "atoll": "Baa",
      "population": 390,
      "area_km2": 3.1384,
      "pct_inundated": 36.3,
      "pop_at_risk": 158,
      "area_inundated_km2": 1.1514,
      "pct_pop_at_risk": 0.03,
      "vulnerability_index": 0.3063,
      "lat": 5.159886139039855,
      "lon": 73.00243383827676
    },
    {
      "island_name": "Hithaadhoo",
      "atoll": "Baa",
      "population": 1729,
      "area_km2": 3.2989,
      "pct_inundated": 34.75,
      "pop_at_risk": 668,
      "area_inundated_km2": 1.1586,
      "pct_pop_at_risk": 0.14,
      "vulnerability_index": 0.2961,
      "lat": 5.126994727232259,
      "lon": 72.86951412003708
    },
    {
      "island_name": "Kamadhoo",
      "atoll": "Baa",
      "population": 166,
      "area_km2": 8,
      "pct_inundated": 39.8,
      "pop_at_risk": 73,
      "area_inundated_km2": 3.218,
      "pct_pop_at_risk": 0.01,
      "vulnerability_index": 0.1992,
      "lat": 5.086040553773297,
      "lon": 72.8353434395593
    },
    {
      "island_name": "Naifaru",
      "atoll": "Lhaviyani",
      "population": 5000,
      "area_km2": 8,
      "pct_inundated": 38.4,
      "pop_at_risk": 2133,
      "area_inundated_km2": 3.1048,
      "pct_pop_at_risk": 0.43,
      "vulnerability_index": 0.1983,
      "lat": 5.4663221687232895,
      "lon": 73.57865006669392
    },
    {
      "island_name": "Hinnavaru",
      "atoll": "Lhaviyani",
      "population": 725,
      "area_km2": 2.2711,
      "pct_inundated": 27.45,
      "pop_at_risk": 221,
      "area_inundated_km2": 0.6301,
      "pct_pop_at_risk": 0.04,
      "vulnerability_index": 0.2847,
      "lat": 5.324987295462048,
      "lon": 73.34878967417143
    },
    {
      "island_name": "Kurendhoo",
      "atoll": "Lhaviyani",
      "population": 1348,
      "area_km2": 5.1643,
      "pct_inundated": 33.9,
      "pop_at_risk": 508,
      "area_inundated_km2": 1.7694,
      "pct_pop_at_risk": 0.1,
      "vulnerability_index": 0.2437,
      "lat": 5.330849531975307,
      "lon": 73.38801963382586
    },
    {
      "island_name": "Feydhoofinolhu",
      "atoll": "Lhaviyani",
      "population": 756,
      "area_km2": 3.9418,
      "pct_inundated": 41.45,
      "pop_at_risk": 348,
      "area_inundated_km2": 1.6513,
      "pct_pop_at_risk": 0.07,
      "vulnerability_index": 0.312,
      "lat": 5.304382597236983,
      "lon": 73.51348458279703
    },
    {
      "island_name": "Olhuvelifushi",
      "atoll": "Lhaviyani",
      "population": 151,
      "area_km2": 1.9954,
      "pct_inundated": 37.7,
      "pop_at_risk": 63,
      "area_inundated_km2": 0.7603,
      "pct_pop_at_risk": 0.01,
      "vulnerability_index": 0.3423,
      "lat": 5.3829659636092755,
      "lon": 73.59136496817025
    },
    {
      "island_name": "Lhaviyani Island 06",
      "atoll": "Lhaviyani",
      "population": 394,
      "area_km2": 5.2163,
      "pct_inundated": 35.3,
      "pop_at_risk": 154,
      "area_inundated_km2": 1.8611,
      "pct_pop_at_risk": 0.03,
      "vulnerability_index": 0.2482,
      "lat": 5.357219424950243,
      "lon": 73.43411351932075
    },
    {
      "island_name": "Lhaviyani Island 07",
      "atoll": "Lhaviyani",
      "population": 105,
      "area_km2": 4.4607,
      "pct_inundated": 38.1,
      "pop_at_risk": 44,
      "area_inundated_km2": 1.7176,
      "pct_pop_at_risk": 0.01,
      "vulnerability_index": 0.2812,
      "lat": 5.53488480996687,
      "lon": 73.3090394672493
    },
    {
      "island_name": "Lhaviyani Island 08",
      "atoll": "Lhaviyani",
      "population": 58,
      "area_km2": 3.3623,
      "pct_inundated": 35.15,
      "pop_at_risk": 22,
      "area_inundated_km2": 1.1944,
      "pct_pop_at_risk": 0,
      "vulnerability_index": 0.2944,
      "lat": 5.4526208410860555,
      "lon": 73.37627000957174
    },
    {
      "island_name": "Male",
      "atoll": "Kaafu",
      "population": 240000,
      "area_km2": 7.3172,
      "pct_inundated": 25.8,
      "pop_at_risk": 68779,
      "area_inundated_km2": 1.9079,
      "pct_pop_at_risk": 13.99,
      "vulnerability_index": 0.4465,
      "lat": 4.038652281227673,
      "lon": 73.62820712549804
    },
    {
      "island_name": "Hulhumale",
      "atoll": "Kaafu",
      "population": 65000,
      "area_km2": 5.474,
      "pct_inundated": 10,
      "pop_at_risk": 7220,
      "area_inundated_km2": 0.5532,
      "pct_pop_at_risk": 1.47,
      "vulnerability_index": 0.1959,
      "lat": 3.9507583940752684,
      "lon": 73.322885368956
    },
    {
      "island_name": "Maafushi",
      "atoll": "Kaafu",
      "population": 3800,
      "area_km2": 1.5778,
      "pct_inundated": 47.5,
      "pop_at_risk": 2005,
      "area_inundated_km2": 0.7575,
      "pct_pop_at_risk": 0.41,
      "vulnerability_index": 0.4065,
      "lat": 4.2651247674401676,
      "lon": 73.42288716894642
    },
    {
      "island_name": "Guraidhoo",
      "atoll": "Kaafu",
      "population": 142,
      "area_km2": 1.06,
      "pct_inundated": 28.6,
      "pop_at_risk": 46,
      "area_inundated_km2": 0.3064,
      "pct_pop_at_risk": 0.01,
      "vulnerability_index": 0.3207,
      "lat": 2.3066042161678437,
      "lon": 73.14269861383194
    },
    {
      "island_name": "Thulusdhoo",
      "atoll": "Kaafu",
      "population": 254,
      "area_km2": 6.8532,
      "pct_inundated": 30,
      "pop_at_risk": 84,
      "area_inundated_km2": 2.0779,
      "pct_pop_at_risk": 0.02,
      "vulnerability_index": 0.1796,
      "lat": 4.264939675809568,
      "lon": 73.50840911525498
    },
    {
      "island_name": "Dhiffushi",
      "atoll": "Kaafu",
      "population": 339,
      "area_km2": 6.1227,
      "pct_inundated": 40.2,
      "pop_at_risk": 151,
      "area_inundated_km2": 2.4876,
      "pct_pop_at_risk": 0.03,
      "vulnerability_index": 0.2494,
      "lat": 4.364596233788085,
      "lon": 73.685545418315
    },
    {
      "island_name": "Rasdhoo",
      "atoll": "Alifu Alifu",
      "population": 439,
      "area_km2": 2.8172,
      "pct_inundated": 29.3,
      "pop_at_risk": 143,
      "area_inundated_km2": 0.8342,
      "pct_pop_at_risk": 0.03,
      "vulnerability_index": 0.2796,
      "lat": 3.9646396289147994,
      "lon": 72.81494153275037
    },
    {
      "island_name": "Mathiveri",
      "atoll": "Alifu Alifu",
      "population": 84,
      "area_km2": 3.0907,
      "pct_inundated": 35,
      "pop_at_risk": 32,
      "area_inundated_km2": 1.0932,
      "pct_pop_at_risk": 0.01,
      "vulnerability_index": 0.3007,
      "lat": 4.120309810112302,
      "lon": 72.8208682781716
    },
    {
      "island_name": "Feridhoo",
      "atoll": "Alifu Alifu",
      "population": 389,
      "area_km2": 8,
      "pct_inundated": 38.25,
      "pop_at_risk": 166,
      "area_inundated_km2": 3.0927,
      "pct_pop_at_risk": 0.03,
      "vulnerability_index": 0.1917,
      "lat": 4.104105459492213,
      "lon": 72.71607568853443
    },
    {
      "island_name": "Maalhos",
      "atoll": "Alifu Alifu",
      "population": 511,
      "area_km2": 3.5558,
      "pct_inundated": 39.2,
      "pop_at_risk": 222,
      "area_inundated_km2": 1.4088,
      "pct_pop_at_risk": 0.05,
      "vulnerability_index": 0.3103,
      "lat": 4.029659407499633,
      "lon": 72.84845847627112
    },
    {
      "island_name": "Himandhoo",
      "atoll": "Alifu Alifu",
      "population": 203,
      "area_km2": 1.4374,
      "pct_inundated": 29.3,
      "pop_at_risk": 66,
      "area_inundated_km2": 0.4257,
      "pct_pop_at_risk": 0.01,
      "vulnerability_index": 0.3146,
      "lat": 4.026164884324224,
      "lon": 72.79761048133895
    },
    {
      "island_name": "Thoddoo",
      "atoll": "Alifu Alifu",
      "population": 184,
      "area_km2": 7.6223,
      "pct_inundated": 39.9,
      "pop_at_risk": 81,
      "area_inundated_km2": 3.0738,
      "pct_pop_at_risk": 0.02,
      "vulnerability_index": 0.2094,
      "lat": 4.059883179413127,
      "lon": 72.79412461678594
    },
    {
      "island_name": "Ukulhas",
      "atoll": "Alifu Alifu",
      "population": 50,
      "area_km2": 8,
      "pct_inundated": 33.75,
      "pop_at_risk": 19,
      "area_inundated_km2": 2.7288,
      "pct_pop_at_risk": 0,
      "vulnerability_index": 0.1688,
      "lat": 4.120058923882912,
      "lon": 72.78058193549062
    },
    {
      "island_name": "Mahibadhoo",
      "atoll": "Alifu Dhaalu",
      "population": 725,
      "area_km2": 5.4863,
      "pct_inundated": 40.5,
      "pop_at_risk": 327,
      "area_inundated_km2": 2.2457,
      "pct_pop_at_risk": 0.07,
      "vulnerability_index": 0.2677,
      "lat": 3.891578821149091,
      "lon": 72.83519556730408
    },
    {
      "island_name": "Dhidhdhoo",
      "atoll": "Alifu Dhaalu",
      "population": 183,
      "area_km2": 2.6742,
      "pct_inundated": 25.8,
      "pop_at_risk": 52,
      "area_inundated_km2": 0.6973,
      "pct_pop_at_risk": 0.01,
      "vulnerability_index": 0.2654,
      "lat": 3.8108080129862785,
      "lon": 72.902181176737
    },
    {
      "island_name": "Fenfushi",
      "atoll": "Alifu Dhaalu",
      "population": 424,
      "area_km2": 2.8668,
      "pct_inundated": 29.4,
      "pop_at_risk": 139,
      "area_inundated_km2": 0.8518,
      "pct_pop_at_risk": 0.03,
      "vulnerability_index": 0.2788,
      "lat": 3.5619875567993122,
      "lon": 72.89121552181692
    },
    {
      "island_name": "Kunburudhoo",
      "atoll": "Alifu Dhaalu",
      "population": 187,
      "area_km2": 8,
      "pct_inundated": 29,
      "pop_at_risk": 60,
      "area_inundated_km2": 2.3448,
      "pct_pop_at_risk": 0.01,
      "vulnerability_index": 0.1452,
      "lat": 3.6448645626764895,
      "lon": 72.75131307158185
    },
    {
      "island_name": "Mandhoo",
      "atoll": "Alifu Dhaalu",
      "population": 277,
      "area_km2": 5.3551,
      "pct_inundated": 34.6,
      "pop_at_risk": 107,
      "area_inundated_km2": 1.8727,
      "pct_pop_at_risk": 0.02,
      "vulnerability_index": 0.241,
      "lat": 3.6789331600603026,
      "lon": 72.71356145390625
    },
    {
      "island_name": "Maamigili",
      "atoll": "Alifu Dhaalu",
      "population": 362,
      "area_km2": 2.3426,
      "pct_inundated": 33.35,
      "pop_at_risk": 134,
      "area_inundated_km2": 0.7896,
      "pct_pop_at_risk": 0.03,
      "vulnerability_index": 0.3119,
      "lat": 3.9289210001539723,
      "lon": 72.74658091599042
    },
    {
      "island_name": "Omadhoo",
      "atoll": "Alifu Dhaalu",
      "population": 1656,
      "area_km2": 7.3057,
      "pct_inundated": 41.45,
      "pop_at_risk": 762,
      "area_inundated_km2": 3.0605,
      "pct_pop_at_risk": 0.15,
      "vulnerability_index": 0.2271,
      "lat": 2.062133177838319,
      "lon": 72.90604480927718
    },
    {
      "island_name": "Alifu Dhaalu Island 08",
      "atoll": "Alifu Dhaalu",
      "population": 51,
      "area_km2": 2.7904,
      "pct_inundated": 27.05,
      "pop_at_risk": 16,
      "area_inundated_km2": 0.7629,
      "pct_pop_at_risk": 0,
      "vulnerability_index": 0.2686,
      "lat": 3.630347145355853,
      "lon": 72.72127973485536
    },
    {
      "island_name": "Alifu Dhaalu Island 09",
      "atoll": "Alifu Dhaalu",
      "population": 405,
      "area_km2": 2.195,
      "pct_inundated": 37.55,
      "pop_at_risk": 169,
      "area_inundated_km2": 0.833,
      "pct_pop_at_risk": 0.03,
      "vulnerability_index": 0.3367,
      "lat": 3.8391210497797283,
      "lon": 72.73971320158796
    },
    {
      "island_name": "Alifu Dhaalu Island 10",
      "atoll": "Alifu Dhaalu",
      "population": 317,
      "area_km2": 4.7155,
      "pct_inundated": 35.15,
      "pop_at_risk": 123,
      "area_inundated_km2": 1.6752,
      "pct_pop_at_risk": 0.03,
      "vulnerability_index": 0.2601,
      "lat": 3.6976332739455704,
      "lon": 72.88414902499275
    },
    {
      "island_name": "Alifu Dhaalu Island 11",
      "atoll": "Alifu Dhaalu",
      "population": 148,
      "area_km2": 2.1549,
      "pct_inundated": 30.25,
      "pop_at_risk": 50,
      "area_inundated_km2": 0.6589,
      "pct_pop_at_risk": 0.01,
      "vulnerability_index": 0.3009,
      "lat": 3.849721737648296,
      "lon": 72.8285856009062
    },
    {
      "island_name": "Alifu Dhaalu Island 12",
      "atoll": "Alifu Dhaalu",
      "population": 1420,
      "area_km2": 1.1907,
      "pct_inundated": 39.65,
      "pop_at_risk": 625,
      "area_inundated_km2": 0.4771,
      "pct_pop_at_risk": 0.13,
      "vulnerability_index": 0.3742,
      "lat": 3.8030957478105782,
      "lon": 72.84207640252824
    },
    {
      "island_name": "Felidhoo",
      "atoll": "Vaavu",
      "population": 890,
      "area_km2": 1.033,
      "pct_inundated": 39.8,
      "pop_at_risk": 393,
      "area_inundated_km2": 0.4155,
      "pct_pop_at_risk": 0.08,
      "vulnerability_index": 0.3783,
      "lat": 3.387622718172526,
      "lon": 73.46200498235692
    },
    {
      "island_name": "Fulidhoo",
      "atoll": "Vaavu",
      "population": 2947,
      "area_km2": 2.3854,
      "pct_inundated": 39.35,
      "pop_at_risk": 1289,
      "area_inundated_km2": 0.9487,
      "pct_pop_at_risk": 0.26,
      "vulnerability_index": 0.344,
      "lat": 3.5294666204320886,
      "lon": 73.40302020279994
    },
    {
      "island_name": "Keyodhoo",
      "atoll": "Vaavu",
      "population": 520,
      "area_km2": 7.0423,
      "pct_inundated": 40.2,
      "pop_at_risk": 232,
      "area_inundated_km2": 2.8612,
      "pct_pop_at_risk": 0.05,
      "vulnerability_index": 0.2261,
      "lat": 3.4464593185569297,
      "lon": 73.60617901835502
    },
    {
      "island_name": "Rakeedhoo",
      "atoll": "Vaavu",
      "population": 100,
      "area_km2": 4.2381,
      "pct_inundated": 25,
      "pop_at_risk": 28,
      "area_inundated_km2": 1.0708,
      "pct_pop_at_risk": 0.01,
      "vulnerability_index": 0.2213,
      "lat": 3.250138362962785,
      "lon": 73.35227832365834
    },
    {
      "island_name": "Thinadhoo",
      "atoll": "Vaavu",
      "population": 520,
      "area_km2": 5.1969,
      "pct_inundated": 34.3,
      "pop_at_risk": 198,
      "area_inundated_km2": 1.8015,
      "pct_pop_at_risk": 0.04,
      "vulnerability_index": 0.2438,
      "lat": 0.20364335543793705,
      "lon": 72.95061673168108
    },
    {
      "island_name": "Vaavu Island 06",
      "atoll": "Vaavu",
      "population": 418,
      "area_km2": 0.8369,
      "pct_inundated": 36.85,
      "pop_at_risk": 171,
      "area_inundated_km2": 0.3117,
      "pct_pop_at_risk": 0.03,
      "vulnerability_index": 0.368,
      "lat": 3.578693667782632,
      "lon": 73.44124926661402
    },
    {
      "island_name": "Vaavu Island 07",
      "atoll": "Vaavu",
      "population": 1224,
      "area_km2": 0.6405,
      "pct_inundated": 26.05,
      "pop_at_risk": 354,
      "area_inundated_km2": 0.1687,
      "pct_pop_at_risk": 0.07,
      "vulnerability_index": 0.32,
      "lat": 3.540769571319867,
      "lon": 73.43626177711093
    },
    {
      "island_name": "Muli",
      "atoll": "Meemu",
      "population": 2500,
      "area_km2": 2.3997,
      "pct_inundated": 37.95,
      "pop_at_risk": 1054,
      "area_inundated_km2": 0.9204,
      "pct_pop_at_risk": 0.21,
      "vulnerability_index": 0.3361,
      "lat": 2.822505579533173,
      "lon": 73.5331286583755
    },
    {
      "island_name": "Dhiggaru",
      "atoll": "Meemu",
      "population": 271,
      "area_km2": 1.2934,
      "pct_inundated": 35.3,
      "pop_at_risk": 107,
      "area_inundated_km2": 0.4615,
      "pct_pop_at_risk": 0.02,
      "vulnerability_index": 0.3484,
      "lat": 3.143673989547806,
      "lon": 73.5687950116626
    },
    {
      "island_name": "Kolhufushi",
      "atoll": "Meemu",
      "population": 649,
      "area_km2": 8,
      "pct_inundated": 35.45,
      "pop_at_risk": 255,
      "area_inundated_km2": 2.8663,
      "pct_pop_at_risk": 0.05,
      "vulnerability_index": 0.1781,
      "lat": 2.905004031806021,
      "lon": 73.48530677557814
    },
    {
      "island_name": "Maduvvari",
      "atoll": "Meemu",
      "population": 658,
      "area_km2": 2.8976,
      "pct_inundated": 35.45,
      "pop_at_risk": 259,
      "area_inundated_km2": 1.0382,
      "pct_pop_at_risk": 0.05,
      "vulnerability_index": 0.3086,
      "lat": 3.0821503070956444,
      "lon": 73.48816263101486
    },