{
  "SSP1-2.6_2050": [
    {
      "island_id": 1,
      "island_name": "Dhidhdhoo",
      "atoll": "Haa Alif",
      "lat": 6.587831219923177,
      "lon": 73.1943779504612,
      "area_km2": 2.4815,
      "population": 381,
      "slr_m": 0.3,
      "area_inundated_km2": 0.4928,
      "frac_inundated": 0.1986,
      "pct_inundated": 19.86,
      "pop_at_risk": 76,
      "pct_pop_at_risk": 19.86,
      "vulnerability_index": 0.4291,
      "vi_rank": 96
    },
    {
      "island_id": 2,
      "island_name": "Baarah",
      "atoll": "Haa Alif",
      "lat": 6.7799425547895815,
      "lon": 73.01593779948678,
      "area_km2": 2.6986,
      "population": 57,
      "slr_m": 0.3,
      "area_inundated_km2": 0.6881,
      "frac_inundated": 0.255,
      "pct_inundated": 25.5,
      "pop_at_risk": 15,
      "pct_pop_at_risk": 25.5,
      "vulnerability_index": 0.7578,
      "vi_rank": 27
    },
    {
      "island_id": 3,
      "island_name": "Filladhoo",
      "atoll": "Haa Alif",
      "lat": 6.648366987681567,
      "lon": 73.19361722427271,
      "area_km2": 2.3856,
      "population": 824,
      "slr_m": 0.3,
      "area_inundated_km2": 0.6262,
      "frac_inundated": 0.2625,
      "pct_inundated": 26.25,
      "pop_at_risk": 216,
      "pct_pop_at_risk": 26.25,
      "vulnerability_index": 0.8103,
      "vi_rank": 19
    },
    {
      "island_id": 4,
      "island_name": "Hoarafushi",
      "atoll": "Haa Alif",
      "lat": 6.596497801620629,
      "lon": 73.06194850884191,
      "area_km2": 0.5645,
      "population": 788,
      "slr_m": 0.3,
      "area_inundated_km2": 0.1321,
      "frac_inundated": 0.234,
      "pct_inundated": 23.4,
      "pop_at_risk": 184,
      "pct_pop_at_risk": 23.4,
      "vulnerability_index": 0.6879,
      "vi_rank": 41
    },
    {
      "island_id": 5,
      "island_name": "Ihavandhoo",
      "atoll": "Haa Alif",
      "lat": 6.720366234954066,
      "lon": 72.90536890304772,
      "area_km2": 3.2068,
      "population": 116,
      "slr_m": 0.3,
      "area_inundated_km2": 0.7033,
      "frac_inundated": 0.2193,
      "pct_inundated": 21.93,
      "pop_at_risk": 25,
      "pct_pop_at_risk": 21.93,
      "vulnerability_index": 0.5333,
      "vi_rank": 72
    },
    {
      "island_id": 6,
      "island_name": "Kelaa",
      "atoll": "Haa Alif",
      "lat": 7.056366887701761,
      "lon": 73.05579549116217,
      "area_km2": 2.3896,
      "population": 1300,
      "slr_m": 0.3,
      "area_inundated_km2": 0.4158,
      "frac_inundated": 0.174,
      "pct_inundated": 17.4,
      "pop_at_risk": 226,
      "pct_pop_at_risk": 17.4,
      "vulnerability_index": 0.2857,
      "vi_rank": 133
    },
    {
      "island_id": 7,
      "island_name": "Maarandhoo",
      "atoll": "Haa Alif",
      "lat": 6.629576587229868,
      "lon": 73.04005976306276,
      "area_km2": 5.4021,
      "population": 479,
      "slr_m": 0.3,
      "area_inundated_km2": 1.3143,
      "frac_inundated": 0.2433,
      "pct_inundated": 24.33,
      "pop_at_risk": 117,
      "pct_pop_at_risk": 24.33,
      "vulnerability_index": 0.6193,
      "vi_rank": 58
    },
    {
      "island_id": 8,
      "island_name": "Kulhudhuffushi",
      "atoll": "Haa Dhaalu",
      "lat": 6.524997613433515,
      "lon": 73.13715797397009,
      "area_km2": 2.4343,
      "population": 12000,
      "slr_m": 0.3,
      "area_inundated_km2": 0.5309,
      "frac_inundated": 0.2181,
      "pct_inundated": 21.81,
      "pop_at_risk": 2617,
      "pct_pop_at_risk": 21.81,
      "vulnerability_index": 0.5459,
      "vi_rank": 70
    },
    {
      "island_id": 9,
      "island_name": "Hanimaadhoo",
      "atoll": "Haa Dhaalu",
      "lat": 6.268247259866504,
      "lon": 72.93815372374098,
      "area_km2": 8,
      "population": 170,
      "slr_m": 0.3,
      "area_inundated_km2": 1.9728,
      "frac_inundated": 0.2466,
      "pct_inundated": 24.66,
      "pop_at_risk": 42,
      "pct_pop_at_risk": 24.66,
      "vulnerability_index": 0.5724,
      "vi_rank": 65
    },
    {
      "island_id": 10,
      "island_name": "Finey",
      "atoll": "Haa Dhaalu",
      "lat": 6.3732927648172,
      "lon": 72.91165716372468,
      "area_km2": 3.4382,
      "population": 50,
      "slr_m": 0.3,
      "area_inundated_km2": 0.7096,
      "frac_inundated": 0.2064,
      "pct_inundated": 20.64,
      "pop_at_risk": 10,
      "pct_pop_at_risk": 20.64,
      "vulnerability_index": 0.4509,
      "vi_rank": 91
    },
    {
      "island_id": 11,
      "island_name": "Kumundhoo",
      "atoll": "Haa Dhaalu",
      "lat": 6.3678793365061,
      "lon": 72.88015079075241,
      "area_km2": 3.7946,
      "population": 176,
      "slr_m": 0.3,
      "area_inundated_km2": 0.7069,
      "frac_inundated": 0.1863,
      "pct_inundated": 18.63,
      "pop_at_risk": 33,
      "pct_pop_at_risk": 18.63,
      "vulnerability_index": 0.3227,
      "vi_rank": 126
    },
    {
      "island_id": 12,
      "island_name": "Makunudhoo",
      "atoll": "Haa Dhaalu",
      "lat": 6.454753514729616,
      "lon": 72.87284264395079,
      "area_km2": 0.9866,
      "population": 439,
      "slr_m": 0.3,
      "area_inundated_km2": 0.1788,
      "frac_inundated": 0.1812,
      "pct_inundated": 18.12,
      "pop_at_risk": 80,
      "pct_pop_at_risk": 18.12,
      "vulnerability_index": 0.3643,
      "vi_rank": 118
    },
    {
      "island_id": 13,
      "island_name": "Naivaadhoo",
      "atoll": "Haa Dhaalu",
      "lat": 6.598280762624526,
      "lon": 73.12333977452325,
      "area_km2": 4.5114,
      "population": 528,
      "slr_m": 0.3,
      "area_inundated_km2": 1.1315,
      "frac_inundated": 0.2508,
      "pct_inundated": 25.08,
      "pop_at_risk": 132,
      "pct_pop_at_risk": 25.08,
      "vulnerability_index": 0.6866,
      "vi_rank": 42
    },
    {
      "island_id": 14,
      "island_name": "Neykurendhoo",
      "atoll": "Haa Dhaalu",
      "lat": 6.5592881157783065,
      "lon": 72.92150269499317,
      "area_km2": 2.4035,
      "population": 317,
      "slr_m": 0.3,
      "area_inundated_km2": 0.6691,
      "frac_inundated": 0.2784,
      "pct_inundated": 27.84,
      "pop_at_risk": 88,
      "pct_pop_at_risk": 27.84,
      "vulnerability_index": 0.904,
      "vi_rank": 7
    },
    {
      "island_id": 15,
      "island_name": "Nolhivaranfaru",
      "atoll": "Haa Dhaalu",
      "lat": 6.31509330098403,
      "lon": 72.85807343363018,
      "area_km2": 3.354,
      "population": 311,
      "slr_m": 0.3,
      "area_inundated_km2": 0.7577,
      "frac_inundated": 0.2259,
      "pct_inundated": 22.59,
      "pop_at_risk": 70,
      "pct_pop_at_risk": 22.59,
      "vulnerability_index": 0.5686,
      "vi_rank": 66
    },
    {
      "island_id": 16,
      "island_name": "Nolhivaram",
      "atoll": "Haa Dhaalu",
      "lat": 6.316161374087948,
      "lon": 73.01611590768819,
      "area_km2": 8,
      "population": 517,
      "slr_m": 0.3,
      "area_inundated_km2": 1.7304,
      "frac_inundated": 0.2163,
      "pct_inundated": 21.63,
      "pop_at_risk": 112,
      "pct_pop_at_risk": 21.63,
      "vulnerability_index": 0.3929,
      "vi_rank": 108
    },
    {
      "island_id": 17,
      "island_name": "Vaikaradhoo",
      "atoll": "Haa Dhaalu",
      "lat": 6.313004418093014,
      "lon": 73.07425055425247,
      "area_km2": 1.3786,
      "population": 851,
      "slr_m": 0.3,
      "area_inundated_km2": 0.2506,
      "frac_inundated": 0.1818,
      "pct_inundated": 18.18,
      "pop_at_risk": 155,
      "pct_pop_at_risk": 18.18,
      "vulnerability_index": 0.3578,
      "vi_rank": 120
    },
    {
      "island_id": 18,
      "island_name": "Nellaidhoo",
      "atoll": "Haa Dhaalu",
      "lat": 6.545753892626556,
      "lon": 72.96197147597837,
      "area_km2": 1.7814,
      "population": 2032,
      "slr_m": 0.3,
      "area_inundated_km2": 0.4083,
      "frac_inundated": 0.2292,
      "pct_inundated": 22.92,
      "pop_at_risk": 466,
      "pct_pop_at_risk": 22.92,
      "vulnerability_index": 0.6284,
      "vi_rank": 54
    },
    {
      "island_id": 19,
      "island_name": "Funadhoo",
      "atoll": "Shaviyani",
      "lat": 6.0967332888154155,
      "lon": 73.13009687943386,
      "area_km2": 2.9027,
      "population": 3500,
      "slr_m": 0.3,
      "area_inundated_km2": 0.4406,
      "frac_inundated": 0.1518,
      "pct_inundated": 15.18,
      "pop_at_risk": 531,
      "pct_pop_at_risk": 15.18,
      "vulnerability_index": 0.141,
      "vi_rank": 170
    },
    {
      "island_id": 20,
      "island_name": "Goidhoo",
      "atoll": "Shaviyani",
      "lat": 6.013848124133387,
      "lon": 73.10548811036989,
      "area_km2": 1.7369,
      "population": 415,
      "slr_m": 0.3,
      "area_inundated_km2": 0.446,
      "frac_inundated": 0.2568,
      "pct_inundated": 25.68,
      "pop_at_risk": 107,
      "pct_pop_at_risk": 25.68,
      "vulnerability_index": 0.7931,
      "vi_rank": 21
    },
    {
      "island_id": 21,
      "island_name": "Komandoo",
      "atoll": "Shaviyani",
      "lat": 5.985817406253381,
      "lon": 73.07920094929385,
      "area_km2": 0.3997,
      "population": 153,
      "slr_m": 0.3,
      "area_inundated_km2": 0.0603,
      "frac_inundated": 0.1509,
      "pct_inundated": 15.09,
      "pop_at_risk": 23,
      "pct_pop_at_risk": 15.09,
      "vulnerability_index": 0.1997,
      "vi_rank": 154
    },
    {
      "island_id": 22,
      "island_name": "Narudhoo",
      "atoll": "Shaviyani",
      "lat": 6.089552262946859,
      "lon": 73.00402738541692,
      "area_km2": 3.3435,
      "population": 2330,
      "slr_m": 0.3,
      "area_inundated_km2": 0.651,
      "frac_inundated": 0.1947,
      "pct_inundated": 19.47,
      "pop_at_risk": 454,
      "pct_pop_at_risk": 19.47,
      "vulnerability_index": 0.384,
      "vi_rank": 111
    },
    {
      "island_id": 23,
      "island_name": "Feydhoo",
      "atoll": "Shaviyani",
      "lat": 6.080066251866535,
      "lon": 73.17323612806463,
      "area_km2": 6.6971,
      "population": 1032,
      "slr_m": 0.3,
      "area_inundated_km2": 1.4144,
      "frac_inundated": 0.2112,
      "pct_inundated": 21.12,
      "pop_at_risk": 218,
      "pct_pop_at_risk": 21.12,
      "vulnerability_index": 0.396,
      "vi_rank": 105
    },
    {
      "island_id": 24,
      "island_name": "Maroshi",
      "atoll": "Shaviyani",
      "lat": 5.903880948935142,
      "lon": 73.00927018887812,
      "area_km2": 1.0774,
      "population": 556,
      "slr_m": 0.3,
      "area_inundated_km2": 0.2521,
      "frac_inundated": 0.234,
      "pct_inundated": 23.4,
      "pop_at_risk": 130,
      "pct_pop_at_risk": 23.4,
      "vulnerability_index": 0.6748,
      "vi_rank": 44
    },
    {
      "island_id": 25,
      "island_name": "Kanditheemu",
      "atoll": "Shaviyani",
      "lat": 5.978921936517331,
      "lon": 72.96626404005016,
      "area_km2": 2.5205,
      "population": 185,
      "slr_m": 0.3,
      "area_inundated_km2": 0.4325,
      "frac_inundated": 0.1716,
      "pct_inundated": 17.16,
      "pop_at_risk": 32,
      "pct_pop_at_risk": 17.16,
      "vulnerability_index": 0.2681,
      "vi_rank": 138
    },
    {
      "island_id": 26,
      "island_name": "Foakaidhoo",
      "atoll": "Shaviyani",
      "lat": 6.0431871906838355,
      "lon": 73.19954969297386,
      "area_km2": 2.2838,
      "population": 771,
      "slr_m": 0.3,
      "area_inundated_km2": 0.5166,
      "frac_inundated": 0.2262,
      "pct_inundated": 22.62,
      "pop_at_risk": 174,
      "pct_pop_at_risk": 22.62,
      "vulnerability_index": 0.5977,
      "vi_rank": 62
    },
    {
      "island_id": 27,
      "island_name": "Lhaimagu",
      "atoll": "Shaviyani",
      "lat": 6.084832683830716,
      "lon": 73.21194755476013,
      "area_km2": 3.616,
      "population": 1592,
      "slr_m": 0.3,
      "area_inundated_km2": 1.0208,
      "frac_inundated": 0.2823,
      "pct_inundated": 28.23,
      "pop_at_risk": 449,
      "pct_pop_at_risk": 28.23,
      "vulnerability_index": 0.8961,
      "vi_rank": 8
    },
    {
      "island_id": 28,
      "island_name": "Milandhoo",
      "atoll": "Shaviyani",
      "lat": 6.03394067620019,
      "lon": 73.06710628776744,
      "area_km2": 1.5866,
      "population": 425,
      "slr_m": 0.3,
      "area_inundated_km2": 0.2942,
      "frac_inundated": 0.1854,
      "pct_inundated": 18.54,
      "pop_at_risk": 79,
      "pct_pop_at_risk": 18.54,
      "vulnerability_index": 0.3738,
      "vi_rank": 114
    },
    {
      "island_id": 29,
      "island_name": "Nalandhoo",
      "atoll": "Shaviyani",
      "lat": 6.181768359495739,
      "lon": 73.00237505839961,
      "area_km2": 4.9393,
      "population": 787,
      "slr_m": 0.3,
      "area_inundated_km2": 1.018,
      "frac_inundated": 0.2061,
      "pct_inundated": 20.61,
      "pop_at_risk": 162,
      "pct_pop_at_risk": 20.61,
      "vulnerability_index": 0.4107,
      "vi_rank": 102
    },
    {
      "island_id": 30,
      "island_name": "Manadhoo",
      "atoll": "Noonu",
      "lat": 5.780173178850713,
      "lon": 73.3778505177884,
      "area_km2": 1.7408,
      "population": 107,
      "slr_m": 0.3,
      "area_inundated_km2": 0.3342,
      "frac_inundated": 0.192,
      "pct_inundated": 19.2,
      "pop_at_risk": 21,
      "pct_pop_at_risk": 19.2,
      "vulnerability_index": 0.409,
      "vi_rank": 103
    },
    {
      "island_id": 31,
      "island_name": "Fodhdhoo",
      "atoll": "Noonu",
      "lat": 5.761471766608644,
      "lon": 73.41418768063052,
      "area_km2": 8,
      "population": 227,
      "slr_m": 0.3,
      "area_inundated_km2": 1.8576,
      "frac_inundated": 0.2322,
      "pct_inundated": 23.22,
      "pop_at_risk": 53,
      "pct_pop_at_risk": 23.22,
      "vulnerability_index": 0.4871,
      "vi_rank": 85
    },
    {
      "island_id": 32,
      "island_name": "Holhudhoo",
      "atoll": "Noonu",
      "lat": 5.841601050724648,
      "lon": 73.29603012311179,
      "area_km2": 1.5362,
      "population": 540,
      "slr_m": 0.3,
      "area_inundated_km2": 0.2337,
      "frac_inundated": 0.1521,
      "pct_inundated": 15.21,
      "pop_at_risk": 82,
      "pct_pop_at_risk": 15.21,
      "vulnerability_index": 0.1778,
      "vi_rank": 160
    },
    {
      "island_id": 33,
      "island_name": "Kendhikulhudhoo",
      "atoll": "Noonu",
      "lat": 5.767186374291122,
      "lon": 73.19401678053988,
      "area_km2": 2.6957,
      "population": 593,
      "slr_m": 0.3,
      "area_inundated_km2": 0.5774,
      "frac_inundated": 0.2142,
      "pct_inundated": 21.42,
      "pop_at_risk": 127,
      "pct_pop_at_risk": 21.42,
      "vulnerability_index": 0.5161,
      "vi_rank": 79
    },
    {
      "island_id": 34,
      "island_name": "Kudafari",
      "atoll": "Noonu",
      "lat": 5.938925528418954,
      "lon": 73.440254575559,
      "area_km2": 8,
      "population": 207,
      "slr_m": 0.3,
      "area_inundated_km2": 1.3968,
      "frac_inundated": 0.1746,
      "pct_inundated": 17.46,
      "pop_at_risk": 36,
      "pct_pop_at_risk": 17.46,
      "vulnerability_index": 0.1458,
      "vi_rank": 166
    },
    {
      "island_id": 35,
      "island_name": "Landhoo",
      "atoll": "Noonu",
      "lat": 5.771027484121972,
      "lon": 73.39211930117852,
      "area_km2": 3.4813,
      "population": 299,
      "slr_m": 0.3,
      "area_inundated_km2": 0.8585,
      "frac_inundated": 0.2466,
      "pct_inundated": 24.66,
      "pop_at_risk": 74,
      "pct_pop_at_risk": 24.66,
      "vulnerability_index": 0.688,
      "vi_rank": 40
    },
    {
      "island_id": 36,
      "island_name": "Lhohi",
      "atoll": "Noonu",
      "lat": 5.7891269603951665,
      "lon": 73.4843897297942,
      "area_km2": 3.858,
      "population": 264,
      "slr_m": 0.3,
      "area_inundated_km2": 0.6018,
      "frac_inundated": 0.156,
      "pct_inundated": 15.6,
      "pop_at_risk": 41,
      "pct_pop_at_risk": 15.6,
      "vulnerability_index": 0.1415,
      "vi_rank": 168
    },
    {
      "island_id": 37,
      "island_name": "Maafaru",
      "atoll": "Noonu",
      "lat": 5.76553962047108,
      "lon": 73.35070058802391,
      "area_km2": 1.697,
      "population": 104,
      "slr_m": 0.3,
      "area_inundated_km2": 0.3915,
      "frac_inundated": 0.2307,
      "pct_inundated": 23.07,
      "pop_at_risk": 24,
      "pct_pop_at_risk": 23.07,
      "vulnerability_index": 0.6394,
      "vi_rank": 52
    },
    {
      "island_id": 38,
      "island_name": "Magoodhoo",
      "atoll": "Noonu",
      "lat": 5.845943295593826,
      "lon": 73.21047490623558,
      "area_km2": 1.6274,
      "population": 2199,
      "slr_m": 0.3,
      "area_inundated_km2": 0.4047,
      "frac_inundated": 0.2487,
      "pct_inundated": 24.87,
      "pop_at_risk": 547,
      "pct_pop_at_risk": 24.87,
      "vulnerability_index": 0.7479,
      "vi_rank": 28
    },
    {
      "island_id": 39,
      "island_name": "Miladhoo",
      "atoll": "Noonu",
      "lat": 5.809744880641751,
      "lon": 73.2486073937613,
      "area_km2": 4.3193,
      "population": 192,
      "slr_m": 0.3,
      "area_inundated_km2": 1.2012,
      "frac_inundated": 0.2781,
      "pct_inundated": 27.81,
      "pop_at_risk": 53,
      "pct_pop_at_risk": 27.81,
      "vulnerability_index": 0.8532,
      "vi_rank": 11
    },
    {
      "island_id": 40,
      "island_name": "Velidhoo",
      "atoll": "Noonu",
      "lat": 5.854726860289166,
      "lon": 73.11107045589272,
      "area_km2": 0.6085,
      "population": 79,
      "slr_m": 0.3,
      "area_inundated_km2": 0.1234,
      "frac_inundated": 0.2028,
      "pct_inundated": 20.28,
      "pop_at_risk": 16,
      "pct_pop_at_risk": 20.28,
      "vulnerability_index": 0.5019,
      "vi_rank": 81
    },
    {
      "island_id": 41,
      "island_name": "Noonu Island 12",
      "atoll": "Noonu",
      "lat": 5.79067886544873,
      "lon": 73.29554250822298,
      "area_km2": 4.6093,
      "population": 145,
      "slr_m": 0.3,
      "area_inundated_km2": 1.2874,
      "frac_inundated": 0.2793,
      "pct_inundated": 27.93,
      "pop_at_risk": 40,
      "pct_pop_at_risk": 27.93,
      "vulnerability_index": 0.8529,
      "vi_rank": 12
    },
    {
      "island_id": 42,
      "island_name": "Noonu Island 13",
      "atoll": "Noonu",
      "lat": 5.779141803220646,
      "lon": 73.37725595959398,
      "area_km2": 2.222,
      "population": 65,
      "slr_m": 0.3,
      "area_inundated_km2": 0.6319,
      "frac_inundated": 0.2844,
      "pct_inundated": 28.44,
      "pop_at_risk": 18,
      "pct_pop_at_risk": 28.44,
      "vulnerability_index": 0.9442,
      "vi_rank": 2
    },
    {
      "island_id": 43,
      "island_name": "Ugoofaaru",
      "atoll": "Raa",
      "lat": 5.479776702839829,
      "lon": 72.8106907381701,
      "area_km2": 1.5024,
      "population": 725,
      "slr_m": 0.3,
      "area_inundated_km2": 0.3939,
      "frac_inundated": 0.2622,
      "pct_inundated": 26.22,
      "pop_at_risk": 190,
      "pct_pop_at_risk": 26.22,
      "vulnerability_index": 0.8311,
      "vi_rank": 17
    },
    {
      "island_id": 44,
      "island_name": "Alifushi",
      "atoll": "Raa",
      "lat": 5.5588513276909595,
      "lon": 72.90059042072403,
      "area_km2": 1.7421,
      "population": 50,
      "slr_m": 0.3,
      "area_inundated_km2": 0.3042,
      "frac_inundated": 0.1746,
      "pct_inundated": 17.46,
      "pop_at_risk": 9,
      "pct_pop_at_risk": 17.46,
      "vulnerability_index": 0.3058,
      "vi_rank": 129
    },
    {
      "island_id": 45,
      "island_name": "Dhuvaafaru",
      "atoll": "Raa",
      "lat": 5.683859943105807,
      "lon": 72.86611537124638,
      "area_km2": 1.1358,
      "population": 109,
      "slr_m": 0.3,
      "area_inundated_km2": 0.2007,
      "frac_inundated": 0.1767,
      "pct_inundated": 17.67,
      "pop_at_risk": 19,
      "pct_pop_at_risk": 17.67,
      "vulnerability_index": 0.3338,
      "vi_rank": 123
    },
    {
      "island_id": 46,
      "island_name": "Fainu",
      "atoll": "Raa",
      "lat": 5.593198691446613,
      "lon": 72.94623248841293,
      "area_km2": 2.5821,
      "population": 50,
      "slr_m": 0.3,
      "area_inundated_km2": 0.6329,
      "frac_inundated": 0.2451,
      "pct_inundated": 24.51,
      "pop_at_risk": 12,
      "pct_pop_at_risk": 24.51,
      "vulnerability_index": 0.7021,
      "vi_rank": 37
    },
    {
      "island_id": 47,
      "island_name": "Hulhudhuffaaru",
      "atoll": "Raa",
      "lat": 5.572286945994079,
      "lon": 72.82314121304618,
      "area_km2": 1.8093,
      "population": 552,
      "slr_m": 0.3,
      "area_inundated_km2": 0.2926,
      "frac_inundated": 0.1617,
      "pct_inundated": 16.17,
      "pop_at_risk": 89,
      "pct_pop_at_risk": 16.17,
      "vulnerability_index": 0.2277,
      "vi_rank": 150
    },
    {
      "island_id": 48,
      "island_name": "Innamaadhoo",
      "atoll": "Raa",
      "lat": 5.774233600118717,
      "lon": 72.8775197623478,
      "area_km2": 8,
      "population": 1804,
      "slr_m": 0.3,
      "area_inundated_km2": 1.4808,
      "frac_inundated": 0.1851,
      "pct_inundated": 18.51,
      "pop_at_risk": 334,
      "pct_pop_at_risk": 18.51,
      "vulnerability_index": 0.208,
      "vi_rank": 152
    },
    {
      "island_id": 49,
      "island_name": "Kinolhas",
      "atoll": "Raa",
      "lat": 5.797650287206669,
      "lon": 72.93858575945221,
      "area_km2": 1.124,
      "population": 1795,
      "slr_m": 0.3,
      "area_inundated_km2": 0.2627,
      "frac_inundated": 0.2337,
      "pct_inundated": 23.37,
      "pop_at_risk": 419,
      "pct_pop_at_risk": 23.37,
      "vulnerability_index": 0.6719,
      "vi_rank": 46
    },
    {
      "island_id": 50,
      "island_name": "Maakurathu",
      "atoll": "Raa",
      "lat": 5.799589665792786,
      "lon": 73.08272606588032,
      "area_km2": 3.9449,
      "population": 101,
      "slr_m": 0.3,
      "area_inundated_km2": 0.9515,
      "frac_inundated": 0.2412,
      "pct_inundated": 24.12,
      "pop_at_risk": 24,
      "pct_pop_at_risk": 24.12,
      "vulnerability_index": 0.6442,
      "vi_rank": 50
    },
    {
      "island_id": 51,
      "island_name": "Meedhoo",
      "atoll": "Raa",
      "lat": 5.692517384209791,
      "lon": 72.99326562504127,
      "area_km2": 1.8335,
      "population": 2776,
      "slr_m": 0.3,
      "area_inundated_km2": 0.5027,
      "frac_inundated": 0.2742,
      "pct_inundated": 27.42,
      "pop_at_risk": 761,
      "pct_pop_at_risk": 27.42,
      "vulnerability_index": 0.8937,
      "vi_rank": 9
    },
    {
      "island_id": 52,
      "island_name": "Rasgetheemu",
      "atoll": "Raa",
      "lat": 5.715121421198156,
      "lon": 73.17792492387302,
      "area_km2": 2.2712,
      "population": 821,
      "slr_m": 0.3,
      "area_inundated_km2": 0.3768,
      "frac_inundated": 0.1659,
      "pct_inundated": 16.59,
      "pop_at_risk": 136,
      "pct_pop_at_risk": 16.59,
      "vulnerability_index": 0.2407,
      "vi_rank": 146
    },
    {
      "island_id": 53,
      "island_name": "Ungoofaaru",
      "atoll": "Raa",
      "lat": 5.63809581050605,
      "lon": 72.9233174966004,
      "area_km2": 4.4374,
      "population": 78,
      "slr_m": 0.3,
      "area_inundated_km2": 1.1169,
      "frac_inundated": 0.2517,
      "pct_inundated": 25.17,
      "pop_at_risk": 20,
      "pct_pop_at_risk": 25.17,
      "vulnerability_index": 0.6938,
      "vi_rank": 39
    },
    {
      "island_id": 54,
      "island_name": "Vaadhoo",
      "atoll": "Raa",
      "lat": 5.798495780862518,
      "lon": 73.08391293331141,
      "area_km2": 4.0384,
      "population": 390,
      "slr_m": 0.3,
      "area_inundated_km2": 0.6445,
      "frac_inundated": 0.1596,
      "pct_inundated": 15.96,
      "pop_at_risk": 62,
      "pct_pop_at_risk": 15.96,
      "vulnerability_index": 0.1582,
      "vi_rank": 162
    },
    {
      "island_id": 55,
      "island_name": "Raa Island 13",
      "atoll": "Raa",
      "lat": 5.452704517183058,
      "lon": 72.88087089315077,
      "area_km2": 1.7204,
      "population": 67,
      "slr_m": 0.3,
      "area_inundated_km2": 0.3644,
      "frac_inundated": 0.2118,
      "pct_inundated": 21.18,
      "pop_at_risk": 14,
      "pct_pop_at_risk": 21.18,
      "vulnerability_index": 0.5268,
      "vi_rank": 75
    },
    {
      "island_id": 56,
      "island_name": "Eydhafushi",
      "atoll": "Baa",
      "lat": 4.929433182447552,
      "lon": 73.07182196922875,
      "area_km2": 2.8777,
      "population": 4500,
      "slr_m": 0.3,
      "area_inundated_km2": 0.4377,
      "frac_inundated": 0.1521,
      "pct_inundated": 15.21,
      "pop_at_risk": 684,
      "pct_pop_at_risk": 15.21,
      "vulnerability_index": 0.1434,
      "vi_rank": 167
    },
    {
      "island_id": 57,
      "island_name": "Dhonfanu",
      "atoll": "Baa",
      "lat": 5.224316873197518,
      "lon": 72.82824544795515,
      "area_km2": 1.9316,
      "population": 50,
      "slr_m": 0.3,
      "area_inundated_km2": 0.5459,
      "frac_inundated": 0.2826,
      "pct_inundated": 28.26,
      "pop_at_risk": 14,
      "pct_pop_at_risk": 28.26,
      "vulnerability_index": 0.941,
      "vi_rank": 4
    },
    {
      "island_id": 58,
      "island_name": "Dharavandhoo",
      "atoll": "Baa",
      "lat": 5.260435047084567,
      "lon": 72.8307769553109,
      "area_km2": 2.6346,
      "population": 201,
      "slr_m": 0.3,
      "area_inundated_km2": 0.6031,
      "frac_inundated": 0.2289,
      "pct_inundated": 22.89,
      "pop_at_risk": 46,
      "pct_pop_at_risk": 22.89,
      "vulnerability_index": 0.6048,
      "vi_rank": 61
    },
    {
      "island_id": 59,
      "island_name": "Fehendhoo",
      "atoll": "Baa",
      "lat": 4.920057454616776,
      "lon": 72.97179905380396,
      "area_km2": 2.9095,
      "population": 611,
      "slr_m": 0.3,
      "area_inundated_km2": 0.4373,
      "frac_inundated": 0.1503,
      "pct_inundated": 15.03,
      "pop_at_risk": 92,
      "pct_pop_at_risk": 15.03,
      "vulnerability_index": 0.132,
      "vi_rank": 172
    },
    {
      "island_id": 60,
      "island_name": "Fulhadhoo",
      "atoll": "Baa",
      "lat": 4.95893481617303,
      "lon": 72.92697107094037,
      "area_km2": 4.0579,
      "population": 687,
      "slr_m": 0.3,
      "area_inundated_km2": 0.6416,
      "frac_inundated": 0.1581,
      "pct_inundated": 15.81,
      "pop_at_risk": 109,
      "pct_pop_at_risk": 15.81,
      "vulnerability_index": 0.1488,
      "vi_rank": 164
    },
    {
      "island_id": 61,
      "island_name": "Goidhoo",
      "atoll": "Baa",
      "lat": 5.159886139039855,
      "lon": 73.00243383827676,
      "area_km2": 3.1384,
      "population": 231,
      "slr_m": 0.3,
      "area_inundated_km2": 0.6939,
      "frac_inundated": 0.2211,
      "pct_inundated": 22.11,
      "pop_at_risk": 51,
      "pct_pop_at_risk": 22.11,
      "vulnerability_index": 0.5457,
      "vi_rank": 71
    },
    {
      "island_id": 62,
      "island_name": "Hithaadhoo",
      "atoll": "Baa",
      "lat": 5.126994727232259,
      "lon": 72.86951412003708,
      "area_km2": 3.2989,
      "population": 1729,
      "slr_m": 0.3,
      "area_inundated_km2": 0.9333,
      "frac_inundated": 0.2829,
      "pct_inundated": 28.29,
      "pop_at_risk": 489,
      "pct_pop_at_risk": 28.29,
      "vulnerability_index": 0.9078,
      "vi_rank": 6
    },
    {
      "island_id": 63,
      "island_name": "Kamadhoo",
      "atoll": "Baa",
      "lat": 5.086040553773297,
      "lon": 72.8353434395593,
      "area_km2": 8,
      "population": 166,
      "slr_m": 0.3,
      "area_inundated_km2": 1.3536,
      "frac_inundated": 0.1692,
      "pct_inundated": 16.92,
      "pop_at_risk": 28,
      "pct_pop_at_risk": 16.92,
      "vulnerability_index": 0.1138,
      "vi_rank": 174
    },
    {
      "island_id": 64,
      "island_name": "Naifaru",
      "atoll": "Lhaviyani",
      "lat": 5.4663221687232895,
      "lon": 73.57865006669392,
      "area_km2": 8,
      "population": 5000,
      "slr_m": 0.3,
      "area_inundated_km2": 1.884,
      "frac_inundated": 0.2355,
      "pct_inundated": 23.55,
      "pop_at_risk": 1178,
      "pct_pop_at_risk": 23.55,
      "vulnerability_index": 0.5067,
      "vi_rank": 80
    },
    {
      "island_id": 65,
      "island_name": "Hinnavaru",
      "atoll": "Lhaviyani",
      "lat": 5.324987295462048,
      "lon": 73.34878967417143,
      "area_km2": 2.2711,
      "population": 725,
      "slr_m": 0.3,
      "area_inundated_km2": 0.4585,
      "frac_inundated": 0.2019,
      "pct_inundated": 20.19,
      "pop_at_risk": 146,
      "pct_pop_at_risk": 20.19,
      "vulnerability_index": 0.4541,
      "vi_rank": 90
    },
    {
      "island_id": 66,
      "island_name": "Kurendhoo",
      "atoll": "Lhaviyani",
      "lat": 5.330849531975307,
      "lon": 73.38801963382586,
      "area_km2": 5.1643,
      "population": 1348,
      "slr_m": 0.3,
      "area_inundated_km2": 0.8537,
      "frac_inundated": 0.1653,
      "pct_inundated": 16.53,
      "pop_at_risk": 223,
      "pct_pop_at_risk": 16.53,
      "vulnerability_index": 0.1632,
      "vi_rank": 161
    },
    {
      "island_id": 67,
      "island_name": "Feydhoofinolhu",
      "atoll": "Lhaviyani",
      "lat": 5.304382597236983,
      "lon": 73.51348458279703,
      "area_km2": 3.9418,
      "population": 756,
      "slr_m": 0.3,
      "area_inundated_km2": 0.7935,
      "frac_inundated": 0.2013,
      "pct_inundated": 20.13,
      "pop_at_risk": 152,
      "pct_pop_at_risk": 20.13,
      "vulnerability_index": 0.4078,
      "vi_rank": 104
    },
    {
      "island_id": 68,
      "island_name": "Olhuvelifushi",
      "atoll": "Lhaviyani",
      "lat": 5.3829659636092755,
      "lon": 73.59136496817025,
      "area_km2": 1.9954,
      "population": 151,
      "slr_m": 0.3,
      "area_inundated_km2": 0.3454,
      "frac_inundated": 0.1731,
      "pct_inundated": 17.31,
      "pop_at_risk": 26,
      "pct_pop_at_risk": 17.31,
      "vulnerability_index": 0.2905,
      "vi_rank": 132
    },
    {
      "island_id": 69,
      "island_name": "Lhaviyani Island 06",
      "atoll": "Lhaviyani",
      "lat": 5.357219424950243,
      "lon": 73.43411351932075,
      "area_km2": 5.2163,
      "population": 394,
      "slr_m": 0.3,
      "area_inundated_km2": 0.9468,
      "frac_inundated": 0.1815,
      "pct_inundated": 18.15,
      "pop_at_risk": 72,
      "pct_pop_at_risk": 18.15,
      "vulnerability_index": 0.2579,
      "vi_rank": 140
    },
    {
      "island_id": 70,
      "island_name": "Lhaviyani Island 07",
      "atoll": "Lhaviyani",
      "lat": 5.53488480996687,
      "lon": 73.3090394672493,
      "area_km2": 4.4607,
      "population": 105,
      "slr_m": 0.3,
      "area_inundated_km2": 0.7374,
      "frac_inundated": 0.1653,
      "pct_inundated": 16.53,
      "pop_at_risk": 17,
      "pct_pop_at_risk": 16.53,
      "vulnerability_index": 0.1812,
      "vi_rank": 159
    },
    {
      "island_id": 71,
      "island_name": "Lhaviyani Island 08",
      "atoll": "Lhaviyani",
      "lat": 5.4526208410860555,
      "lon": 73.37627000957174,
      "area_km2": 3.3623,
      "population": 58,
      "slr_m": 0.3,
      "area_inundated_km2": 0.5729,
      "frac_inundated": 0.1704,
      "pct_inundated": 17.04,
      "pop_at_risk": 10,
      "pct_pop_at_risk": 17.04,
      "vulnerability_index": 0.2395,
      "vi_rank": 147
    },
    {
      "island_id": 72,
      "island_name": "Male",
      "atoll": "Kaafu",
      "lat": 4.038652281227673,
      "lon": 73.62820712549804,
      "area_km2": 7.3172,
      "population": 240000,
      "slr_m": 0.3,
      "area_inundated_km2": 1.1327,
      "frac_inundated": 0.1548,
      "pct_inundated": 15.48,
      "pop_at_risk": 37152,
      "pct_pop_at_risk": 15.48,
      "vulnerability_index": 0.0459,
      "vi_rank": 180
    },
    {
      "island_id": 73,
      "island_name": "Hulhumale",
      "atoll": "Kaafu",
      "lat": 3.9507583940752684,
      "lon": 73.322885368956,
      "area_km2": 5.474,
      "population": 65000,
      "slr_m": 0.3,
      "area_inundated_km2": 0.849,
      "frac_inundated": 0.1551,
      "pct_inundated": 15.51,
      "pop_at_risk": 10082,
      "pct_pop_at_risk": 15.51,
      "vulnerability_index": 0.0948,
      "vi_rank": 175
    },
    {
      "island_id": 74,
      "island_name": "Maafushi",
      "atoll": "Kaafu",
      "lat": 4.2651247674401676,
      "lon": 73.42288716894642,
      "area_km2": 1.5778,
      "population": 3800,
      "slr_m": 0.3,
      "area_inundated_km2": 0.4497,
      "frac_inundated": 0.285,
      "pct_inundated": 28.5,
      "pop_at_risk": 1083,
      "pct_pop_at_risk": 28.5,
      "vulnerability_index": 0.9643,
      "vi_rank": 1
    },
    {
      "island_id": 75,
      "island_name": "Guraidhoo",
      "atoll": "Kaafu",
      "lat": 4.06884408103508,
      "lon": 73.49784057778255,
      "area_km2": 1.06,
      "population": 142,
      "slr_m": 0.3,
      "area_inundated_km2": 0.1959,
      "frac_inundated": 0.1848,
      "pct_inundated": 18.48,
      "pop_at_risk": 26,
      "pct_pop_at_risk": 18.48,
      "vulnerability_index": 0.3837,
      "vi_rank": 112
    },
    {
      "island_id": 76,
      "island_name": "Thulusdhoo",
      "atoll": "Kaafu",
      "lat": 4.264939675809568,
      "lon": 73.50840911525498,
      "area_km2": 6.8532,
      "population": 254,
      "slr_m": 0.3,
      "area_inundated_km2": 1.3775,
      "frac_inundated": 0.201,
      "pct_inundated": 20.1,
      "pop_at_risk": 51,
      "pct_pop_at_risk": 20.1,
      "vulnerability_index": 0.3316,
      "vi_rank": 124
    },
    {
      "island_id": 77,
      "island_name": "Dhiffushi",
      "atoll": "Kaafu",
      "lat": 4.364596233788085,
      "lon": 73.685545418315,
      "area_km2": 6.1227,
      "population": 339,
      "slr_m": 0.3,
      "area_inundated_km2": 1.3776,
      "frac_inundated": 0.225,
      "pct_inundated": 22.5,
      "pop_at_risk": 76,
      "pct_pop_at_risk": 22.5,
      "vulnerability_index": 0.4925,
      "vi_rank": 83
    },
    {
      "island_id": 78,
      "island_name": "Rasdhoo",
      "atoll": "Alifu Alifu",
      "lat": 3.9646396289147994,
      "lon": 72.81494153275037,
      "area_km2": 2.8172,
      "population": 439,
      "slr_m": 0.3,
      "area_inundated_km2": 0.4843,
      "frac_inundated": 0.1719,
      "pct_inundated": 17.19,
      "pop_at_risk": 75,
      "pct_pop_at_risk": 17.19,
      "vulnerability_index": 0.2623,
      "vi_rank": 139
    },
    {
      "island_id": 79,
      "island_name": "Mathiveri",
      "atoll": "Alifu Alifu",
      "lat": 4.120309810112302,
      "lon": 72.8208682781716,
      "area_km2": 3.0907,
      "population": 84,
      "slr_m": 0.3,
      "area_inundated_km2": 0.6741,
      "frac_inundated": 0.2181,
      "pct_inundated": 21.81,
      "pop_at_risk": 18,
      "pct_pop_at_risk": 21.81,
      "vulnerability_index": 0.5291,
      "vi_rank": 74
    },
    {
      "island_id": 80,
      "island_name": "Feridhoo",
      "atoll": "Alifu Alifu",
      "lat": 4.104105459492213,
      "lon": 72.71607568853443,
      "area_km2": 8,
      "population": 389,
      "slr_m": 0.3,
      "area_inundated_km2": 1.8624,
      "frac_inundated": 0.2328,
      "pct_inundated": 23.28,
      "pop_at_risk": 91,
      "pct_pop_at_risk": 23.28,
      "vulnerability_index": 0.4907,
      "vi_rank": 84
    },
    {
      "island_id": 81,
      "island_name": "Maalhos",
      "atoll": "Alifu Alifu",
      "lat": 4.029659407499633,
      "lon": 72.84845847627112,
      "area_km2": 3.5558,
      "population": 511,
      "slr_m": 0.3,
      "area_inundated_km2": 0.7521,
      "frac_inundated": 0.2115,
      "pct_inundated": 21.15,
      "pop_at_risk": 108,
      "pct_pop_at_risk": 21.15,
      "vulnerability_index": 0.4781,
      "vi_rank": 87
    },
    {
      "island_id": 82,
      "island_name": "Himandhoo",
      "atoll": "Alifu Alifu",
      "lat": 4.026164884324224,
      "lon": 72.79761048133895,
      "area_km2": 1.4374,
      "population": 203,
      "slr_m": 0.3,
      "area_inundated_km2": 0.2704,
      "frac_inundated": 0.1881,
      "pct_inundated": 18.81,
      "pop_at_risk": 38,
      "pct_pop_at_risk": 18.81,
      "vulnerability_index": 0.3936,
      "vi_rank": 107
    },
    {
      "island_id": 83,
      "island_name": "Thoddoo",
      "atoll": "Alifu Alifu",
      "lat": 4.059883179413127,
      "lon": 72.79412461678594,
      "area_km2": 7.6223,
      "population": 184,
      "slr_m": 0.3,
      "area_inundated_km2": 2.0009,
      "frac_inundated": 0.2625,
      "pct_inundated": 26.25,
      "pop_at_risk": 48,
      "pct_pop_at_risk": 26.25,
      "vulnerability_index": 0.6763,
      "vi_rank": 43
    },
    {
      "island_id": 84,
      "island_name": "Ukulhas",
      "atoll": "Alifu Alifu",
      "lat": 4.120058923882912,
      "lon": 72.78058193549062,
      "area_km2": 8,
      "population": 50,
      "slr_m": 0.3,
      "area_inundated_km2": 1.9464,
      "frac_inundated": 0.2433,
      "pct_inundated": 24.33,
      "pop_at_risk": 12,
      "pct_pop_at_risk": 24.33,
      "vulnerability_index": 0.5529,
      "vi_rank": 69
    },
    {
      "island_id": 85,
      "island_name": "Mahibadhoo",
      "atoll": "Alifu Dhaalu",
      "lat": 3.891578821149091,
      "lon": 72.83519556730408,
      "area_km2": 5.4863,
      "population": 725,
      "slr_m": 0.3,
      "area_inundated_km2": 1.3875,
      "frac_inundated": 0.2529,
      "pct_inundated": 25.29,
      "pop_at_risk": 183,
      "pct_pop_at_risk": 25.29,
      "vulnerability_index": 0.6741,
      "vi_rank": 45
    },
    {
      "island_id": 86,
      "island_name": "Dhidhdhoo",
      "atoll": "Alifu Dhaalu",
      "lat": 3.8108080129862785,
      "lon": 72.902181176737,
      "area_km2": 2.6742,
      "population": 223,
      "slr_m": 0.3,
      "area_inundated_km2": 0.4035,
      "frac_inundated": 0.1509,
      "pct_inundated": 15.09,
      "pop_at_risk": 34,
      "pct_pop_at_risk": 15.09,
      "vulnerability_index": 0.1415,
      "vi_rank": 169
    },
    {
      "island_id": 87,
      "island_name": "Fenfushi",
      "atoll": "Alifu Dhaalu",
      "lat": 3.5619875567993122,
      "lon": 72.89121552181692,
      "area_km2": 2.8668,
      "population": 424,
      "slr_m": 0.3,
      "area_inundated_km2": 0.7887,
      "frac_inundated": 0.2751,
      "pct_inundated": 27.51,
      "pop_at_risk": 117,
      "pct_pop_at_risk": 27.51,
      "vulnerability_index": 0.8726,
      "vi_rank": 10
    },
    {
      "island_id": 88,
      "island_name": "Kunburudhoo",
      "atoll": "Alifu Dhaalu",
      "lat": 3.6448645626764895,
      "lon": 72.75131307158185,
      "area_km2": 8,
      "population": 187,
      "slr_m": 0.3,
      "area_inundated_km2": 1.7736,
      "frac_inundated": 0.2217,
      "pct_inundated": 22.17,
      "pop_at_risk": 41,
      "pct_pop_at_risk": 22.17,
      "vulnerability_index": 0.4249,
      "vi_rank": 97
    },
    {
      "island_id": 89,
      "island_name": "Mandhoo",
      "atoll": "Alifu Dhaalu",
      "lat": 3.6789331600603026,
      "lon": 72.71356145390625,
      "area_km2": 5.3551,
      "population": 277,
      "slr_m": 0.3,
      "area_inundated_km2": 0.8033,
      "frac_inundated": 0.15,
      "pct_inundated": 15,
      "pop_at_risk": 42,
      "pct_pop_at_risk": 15,
      "vulnerability_index": 0.0676,
      "vi_rank": 178
    },
    {
      "island_id": 90,
      "island_name": "Maamigili",
      "atoll": "Alifu Dhaalu",
      "lat": 3.9289210001539723,
      "lon": 72.74658091599042,
      "area_km2": 2.3426,
      "population": 362,
      "slr_m": 0.3,
      "area_inundated_km2": 0.4364,
      "frac_inundated": 0.1863,
      "pct_inundated": 18.63,
      "pop_at_risk": 67,
      "pct_pop_at_risk": 18.63,
      "vulnerability_index": 0.3598,
      "vi_rank": 119
    },
    {
      "island_id": 91,
      "island_name": "Omadhoo",
      "atoll": "Alifu Dhaalu",
      "lat": 3.641698403631267,
      "lon": 72.8897111147851,
      "area_km2": 7.3057,
      "population": 1656,
      "slr_m": 0.3,
      "area_inundated_km2": 1.098,
      "frac_inundated": 0.1503,
      "pct_inundated": 15.03,
      "pop_at_risk": 249,
      "pct_pop_at_risk": 15.03,
      "vulnerability_index": 0.0195,
      "vi_rank": 181
    },
    {
      "island_id": 92,
      "island_name": "Alifu Dhaalu Island 08",
      "atoll": "Alifu Dhaalu",
      "lat": 3.630347145355853,
      "lon": 72.72127973485536,
      "area_km2": 2.7904,
      "population": 51,
      "slr_m": 0.3,
      "area_inundated_km2": 0.5517,
      "frac_inundated": 0.1977,
      "pct_inundated": 19.77,
      "pop_at_risk": 10,
      "pct_pop_at_risk": 19.77,
      "vulnerability_index": 0.4159,
      "vi_rank": 101
    },
    {
      "island_id": 93,
      "island_name": "Alifu Dhaalu Island 09",
      "atoll": "Alifu Dhaalu",
      "lat": 3.8391210497797283,
      "lon": 72.73971320158796,
      "area_km2": 2.195,
      "population": 405,
      "slr_m": 0.3,
      "area_inundated_km2": 0.3747,
      "frac_inundated": 0.1707,
      "pct_inundated": 17.07,
      "pop_at_risk": 69,
      "pct_pop_at_risk": 17.07,
      "vulnerability_index": 0.2711,
      "vi_rank": 136
    },
    {
      "island_id": 94,
      "island_name": "Alifu Dhaalu Island 10",
      "atoll": "Alifu Dhaalu",
      "lat": 3.6976332739455704,
      "lon": 72.88414902499275,
      "area_km2": 4.7155,
      "population": 317,
      "slr_m": 0.3,
      "area_inundated_km2": 0.9521,
      "frac_inundated": 0.2019,
      "pct_inundated": 20.19,
      "pop_at_risk": 64,
      "pct_pop_at_risk": 20.19,
      "vulnerability_index": 0.3916,
      "vi_rank": 109
    },
    {
      "island_id": 95,
      "island_name": "Alifu Dhaalu Island 11",
      "atoll": "Alifu Dhaalu",
      "lat": 3.849721737648296,
      "lon": 72.8285856009062,
      "area_km2": 2.1549,
      "population": 148,
      "slr_m": 0.3,
      "area_inundated_km2": 0.4487,
      "frac_inundated": 0.2082,
      "pct_inundated": 20.82,
      "pop_at_risk": 31,
      "pct_pop_at_risk": 20.82,
      "vulnerability_index": 0.4944,
      "vi_rank": 82
    },
    {
      "island_id": 96,
      "island_name": "Alifu Dhaalu Island 12",
      "atoll": "Alifu Dhaalu",
      "lat": 3.8030957478105782,
      "lon": 72.84207640252824,
      "area_km2": 1.1907,
      "population": 1420,
      "slr_m": 0.3,
      "area_inundated_km2": 0.2883,
      "frac_inundated": 0.2421,
      "pct_inundated": 24.21,
      "pop_at_risk": 344,
      "pct_pop_at_risk": 24.21,
      "vulnerability_index": 0.7199,
      "vi_rank": 33
    },
    {
      "island_id": 97,
      "island_name": "Felidhoo",
      "atoll": "Vaavu",
      "lat": 3.387622718172526,
      "lon": 73.46200498235692,
      "area_km2": 1.033,
      "population": 109,
      "slr_m": 0.3,
      "area_inundated_km2": 0.2396,
      "frac_inundated": 0.2319,
      "pct_inundated": 23.19,
      "pop_at_risk": 25,
      "pct_pop_at_risk": 23.19,
      "vulnerability_index": 0.6635,
      "vi_rank": 47
    },
    {
      "island_id": 98,
      "island_name": "Fulidhoo",
      "atoll": "Vaavu",
      "lat": 3.5294666204320886,
      "lon": 73.40302020279994,
      "area_km2": 2.3854,
      "population": 2947,
      "slr_m": 0.3,
      "area_inundated_km2": 0.4272,
      "frac_inundated": 0.1791,
      "pct_inundated": 17.91,
      "pop_at_risk": 528,
      "pct_pop_at_risk": 17.91,
      "vulnerability_index": 0.316,
      "vi_rank": 127
    },
    {
      "island_id": 99,
      "island_name": "Keyodhoo",
      "atoll": "Vaavu",
      "lat": 3.4464593185569297,
      "lon": 73.60617901835502,
      "area_km2": 7.0423,
      "population": 155,
      "slr_m": 0.3,
      "area_inundated_km2": 1.388,
      "frac_inundated": 0.1971,
      "pct_inundated": 19.71,
      "pop_at_risk": 31,
      "pct_pop_at_risk": 19.71,
      "vulnerability_index": 0.3036,
      "vi_rank": 130
    },
    {
      "island_id": 100,
      "island_name": "Rakeedhoo",
      "atoll": "Vaavu",
      "lat": 3.250138362962785,
      "lon": 73.35227832365834,
      "area_km2": 4.2381,
      "population": 68,
      "slr_m": 0.3,
      "area_inundated_km2": 1.0019,
      "frac_inundated": 0.2364,
      "pct_inundated": 23.64,
      "pop_at_risk": 16,
      "pct_pop_at_risk": 23.64,
      "vulnerability_index": 0.6082,
      "vi_rank": 60
    },
    {
      "island_id": 101,
      "island_name": "Thinadhoo",
      "atoll": "Vaavu",
      "lat": 3.546641343901083,
      "lon": 73.52045188170635,
      "area_km2": 5.1969,
      "population": 9000,
      "slr_m": 0.3,
      "area_inundated_km2": 0.9557,
      "frac_inundated": 0.1839,
      "pct_inundated": 18.39,
      "pop_at_risk": 1655,
      "pct_pop_at_risk": 18.39,
      "vulnerability_index": 0.2726,
      "vi_rank": 135
    },
    {
      "island_id": 102,
      "island_name": "Vaavu Island 06",
      "atoll": "Vaavu",
      "lat": 3.578693667782632,
      "lon": 73.44124926661402,
      "area_km2": 0.8369,
      "population": 418,
      "slr_m": 0.3,
      "area_inundated_km2": 0.1268,
      "frac_inundated": 0.1515,
      "pct_inundated": 15.15,
      "pop_at_risk": 63,
      "pct_pop_at_risk": 15.15,
      "vulnerability_index": 0.1921,
      "vi_rank": 156
    },
    {
      "island_id": 103,
      "island_name": "Vaavu Island 07",
      "atoll": "Vaavu",
      "lat": 3.540769571319867,
      "lon": 73.43626177711093,
      "area_km2": 0.6405,
      "population": 1224,
      "slr_m": 0.3,
      "area_inundated_km2": 0.1159,
      "frac_inundated": 0.1809,
      "pct_inundated": 18.09,
      "pop_at_risk": 221,
      "pct_pop_at_risk": 18.09,
      "vulnerability_index": 0.3713,
      "vi_rank": 116
    },
    {
      "island_id": 104,
      "island_name": "Muli",
      "atoll": "Meemu",
      "lat": 2.822505579533173,
      "lon": 73.5331286583755,
      "area_km2": 2.3997,
      "population": 2500,
      "slr_m": 0.3,
      "area_inundated_km2": 0.365,
      "frac_inundated": 0.1521,
      "pct_inundated": 15.21,
      "pop_at_risk": 380,
      "pct_pop_at_risk": 15.21,
      "vulnerability_index": 0.1557,
      "vi_rank": 163
    },
    {
      "island_id": 105,
      "island_name": "Dhiggaru",
      "atoll": "Meemu",
      "lat": 3.143673989547806,
      "lon": 73.5687950116626,
      "area_km2": 1.2934,
      "population": 271,
      "slr_m": 0.3,
      "area_inundated_km2": 0.2476,
      "frac_inundated": 0.1914,
      "pct_inundated": 19.14,
      "pop_at_risk": 52,
      "pct_pop_at_risk": 19.14,
      "vulnerability_index": 0.4169,
      "vi_rank": 100
    },
    {
      "island_id": 106,
      "island_name": "Kolhufushi",
      "atoll": "Meemu",
      "lat": 2.905004031806021,
      "lon": 73.48530677557814,
      "area_km2": 8,
      "population": 649,
      "slr_m": 0.3,
      "area_inundated_km2": 2.1456,
      "frac_inundated": 0.2682,
      "pct_inundated": 26.82,
      "pop_at_risk": 174,
      "pct_pop_at_risk": 26.82,
      "vulnerability_index": 0.7004,
      "vi_rank": 38
    },
    {
      "island_id": 107,
      "island_name": "Maduvvari",
      "atoll": "Meemu",
      "lat": 3.0821503070956444,
      "lon": 73.48816263101486,
      "area_km2": 2.8976,
      "population": 658,
      "slr_m": 0.3,
      "area_inundated_km2": 0.6772,
      "frac_inundated": 0.2337,
      "pct_inundated": 23.37,
      "pop_at_risk": 154,
      "pct_pop_at_risk": 23.37,
      "vulnerability_index": 0.6265,
      "vi_rank": 55
    },
    {
      "island_id": 108,
      "island_name": "Mulah",
      "atoll": "Meemu",
      "lat": 2.8431289911486974,
      "lon": 73.371287161792,
      "area_km2": 0.6103,
      "population": 228,
      "slr_m": 0.3,
      "area_inundated_km2": 0.1194,
      "frac_inundated": 0.1956,
      "pct_inundated": 19.56,
      "pop_at_risk": 45,
      "pct_pop_at_risk": 19.56,
      "vulnerability_index": 0.4592,
      "vi_rank": 89
    },
    {
      "island_id": 109,
      "island_name": "Naalaafushi",
      "atoll": "Meemu",
      "lat": 2.8564616180272915,
      "lon": 73.43934960548984,
      "area_km2": 8,
      "population": 672,
      "slr_m": 0.3,
      "area_inundated_km2": 1.5144,
      "frac_inundated": 0.1893,
      "pct_inundated": 18.93,
      "pop_at_risk": 127,
      "pct_pop_at_risk": 18.93,
      "vulnerability_index": 0.2329,
      "vi_rank": 148
    },
    {
      "island_id": 110,
      "island_name": "Raimandhoo",
      "atoll": "Meemu",
      "lat": 3.0528876068775745,
      "lon": 73.41611077440113,
      "area_km2": 3.7756,
      "population": 170,
      "slr_m": 0.3,
      "area_inundated_km2": 1.0137,
      "frac_inundated": 0.2685,
      "pct_inundated": 26.85,
      "pop_at_risk": 46,
      "pct_pop_at_risk": 26.85,
      "vulnerability_index": 0.8103,
      "vi_rank": 20
    },
    {
      "island_id": 111,
      "island_name": "Veyvah",
      "atoll": "Meemu",
      "lat": 3.078566295078156,
      "lon": 73.42996111523358,
      "area_km2": 5.1582,
      "population": 1978,
      "slr_m": 0.3,
      "area_inundated_km2": 1.3293,
      "frac_inundated": 0.2577,
      "pct_inundated": 25.77,
      "pop_at_risk": 510,
      "pct_pop_at_risk": 25.77,
      "vulnerability_index": 0.7109,
      "vi_rank": 35
    },
    {
      "island_id": 112,
      "island_name": "Meemu Island 09",
      "atoll": "Meemu",
      "lat": 2.925939055200652,
      "lon": 73.53766265164307,
      "area_km2": 1.8847,
      "population": 220,
      "slr_m": 0.3,
      "area_inundated_km2": 0.4625,
      "frac_inundated": 0.2454,
      "pct_inundated": 24.54,
      "pop_at_risk": 54,
      "pct_pop_at_risk": 24.54,
      "vulnerability_index": 0.7217,
      "vi_rank": 32
    },
    {
      "island_id": 113,
      "island_name": "Meemu Island 10",
      "atoll": "Meemu",
      "lat": 2.8018122713202174,
      "lon": 73.43649479548598,
      "area_km2": 2.6844,
      "population": 2430,
      "slr_m": 0.3,
      "area_inundated_km2": 0.7642,
      "frac_inundated": 0.2847,
      "pct_inundated": 28.47,
      "pop_at_risk": 692,
      "pct_pop_at_risk": 28.47,
      "vulnerability_index": 0.9342,
      "vi_rank": 5
    },
    {
      "island_id": 114,
      "island_name": "Nilandhoo",
      "atoll": "Faafu",
      "lat": 2.9873389939282413,
      "lon": 73.09826573845889,
      "area_km2": 1.0819,
      "population": 67,
      "slr_m": 0.3,
      "area_inundated_km2": 0.2509,
      "frac_inundated": 0.2319,
      "pct_inundated": 23.19,
      "pop_at_risk": 16,
      "pct_pop_at_risk": 23.19,
      "vulnerability_index": 0.6623,
      "vi_rank": 48
    },
    {
      "island_id": 115,
      "island_name": "Bilehdhoo",
      "atoll": "Faafu",
      "lat": 2.985681305112243,
      "lon": 73.0866850927441,
      "area_km2": 1.6235,
      "population": 234,
      "slr_m": 0.3,
      "area_inundated_km2": 0.4106,
      "frac_inundated": 0.2529,
      "pct_inundated": 25.29,
      "pop_at_risk": 59,
      "pct_pop_at_risk": 25.29,
      "vulnerability_index": 0.7729,
      "vi_rank": 22
    },
    {
      "island_id": 116,
      "island_name": "Dharanboodhoo",
      "atoll": "Faafu",
      "lat": 3.057536401682891,
      "lon": 72.97035822096987,
      "area_km2": 2.8869,
      "population": 1060,
      "slr_m": 0.3,
      "area_inundated_km2": 0.4867,
      "frac_inundated": 0.1686,
      "pct_inundated": 16.86,
      "pop_at_risk": 179,
      "pct_pop_at_risk": 16.86,
      "vulnerability_index": 0.241,
      "vi_rank": 145
    },
    {
      "island_id": 117,
      "island_name": "Feeali",
      "atoll": "Faafu",
      "lat": 2.856781671314217,
      "lon": 72.95636692909905,
      "area_km2": 5.6992,
      "population": 1400,
      "slr_m": 0.3,
      "area_inundated_km2": 1.2977,
      "frac_inundated": 0.2277,
      "pct_inundated": 22.77,
      "pop_at_risk": 319,
      "pct_pop_at_risk": 22.77,
      "vulnerability_index": 0.5193,
      "vi_rank": 78
    },
    {
      "island_id": 118,
      "island_name": "Magoodhoo",
      "atoll": "Faafu",
      "lat": 2.9103438542015723,
      "lon": 73.03032678275609,
      "area_km2": 8,
      "population": 264,
      "slr_m": 0.3,
      "area_inundated_km2": 1.5408,
      "frac_inundated": 0.1926,
      "pct_inundated": 19.26,
      "pop_at_risk": 51,
      "pct_pop_at_risk": 19.26,
      "vulnerability_index": 0.2524,
      "vi_rank": 143
    },
    {
      "island_id": 119,
      "island_name": "Faafu Island 06",
      "atoll": "Faafu",
      "lat": 3.0112786066628243,
      "lon": 72.96536794171328,
      "area_km2": 4.4954,
      "population": 66,
      "slr_m": 0.3,
      "area_inundated_km2": 0.82,
      "frac_inundated": 0.1824,
      "pct_inundated": 18.24,
      "pop_at_risk": 12,
      "pct_pop_at_risk": 18.24,
      "vulnerability_index": 0.2816,
      "vi_rank": 134
    },
    {
      "island_id": 120,
      "island_name": "Faafu Island 07",
      "atoll": "Faafu",
      "lat": 2.8538783612553678,
      "lon": 73.05062726506745,
      "area_km2": 8,
      "population": 175,
      "slr_m": 0.3,
      "area_inundated_km2": 1.4592,
      "frac_inundated": 0.1824,
      "pct_inundated": 18.24,
      "pop_at_risk": 32,
      "pct_pop_at_risk": 18.24,
      "vulnerability_index": 0.192,
      "vi_rank": 157
    },
    {
      "island_id": 121,
      "island_name": "Faafu Island 08",
      "atoll": "Faafu",
      "lat": 2.868151346016245,
      "lon": 73.04259011883815,
      "area_km2": 2.42,
      "population": 416,
      "slr_m": 0.3,
      "area_inundated_km2": 0.4625,
      "frac_inundated": 0.1911,
      "pct_inundated": 19.11,
      "pop_at_risk": 79,
      "pct_pop_at_risk": 19.11,
      "vulnerability_index": 0.3863,
      "vi_rank": 110
    },
    {
      "island_id": 122,
      "island_name": "Faafu Island 09",
      "atoll": "Faafu",
      "lat": 2.875757095142211,
      "lon": 73.01023887994472,
      "area_km2": 8,
      "population": 189,
      "slr_m": 0.3,
      "area_inundated_km2": 1.908,
      "frac_inundated": 0.2385,
      "pct_inundated": 23.85,
      "pop_at_risk": 45,
      "pct_pop_at_risk": 23.85,
      "vulnerability_index": 0.5244,
      "vi_rank": 76
    },
    {
      "island_id": 123,
      "island_name": "Kudahuvadhoo",
      "atoll": "Dhaalu",
      "lat": 2.69337416658955,
      "lon": 72.8717460382664,
      "area_km2": 4.5815,
      "population": 619,
      "slr_m": 0.3,
      "area_inundated_km2": 1.1009,
      "frac_inundated": 0.2403,
      "pct_inundated": 24.03,
      "pop_at_risk": 149,
      "pct_pop_at_risk": 24.03,
      "vulnerability_index": 0.6225,
      "vi_rank": 56
    },
    {
      "island_id": 124,
      "island_name": "Bandidhoo",
      "atoll": "Dhaalu",
      "lat": 2.519736898136264,
      "lon": 72.89109235361477,
      "area_km2": 3.5396,
      "population": 50,
      "slr_m": 0.3,
      "area_inundated_km2": 0.7752,
      "frac_inundated": 0.219,
      "pct_inundated": 21.9,
      "pop_at_risk": 11,
      "pct_pop_at_risk": 21.9,
      "vulnerability_index": 0.523,
      "vi_rank": 77
    },
    {
      "island_id": 125,
      "island_name": "Gemendhoo",
      "atoll": "Dhaalu",
      "lat": 2.7410370291771917,
      "lon": 72.89149370505277,
      "area_km2": 8,
      "population": 1807,
      "slr_m": 0.3,
      "area_inundated_km2": 1.824,
      "frac_inundated": 0.228,
      "pct_inundated": 22.8,
      "pop_at_risk": 412,
      "pct_pop_at_risk": 22.8,
      "vulnerability_index": 0.4622,
      "vi_rank": 88
    },
    {
      "island_id": 126,
      "island_name": "Hulhidhoo",
      "atoll": "Dhaalu",
      "lat": 2.881029256149435,
      "lon": 72.71265374368818,
      "area_km2": 7.8393,
      "population": 3670,
      "slr_m": 0.3,
      "area_inundated_km2": 1.7427,
      "frac_inundated": 0.2223,
      "pct_inundated": 22.23,
      "pop_at_risk": 816,
      "pct_pop_at_risk": 22.23,
      "vulnerability_index": 0.4326,
      "vi_rank": 95
    },
    {
      "island_id": 127,
      "island_name": "Maaenboodhoo",
      "atoll": "Dhaalu",
      "lat": 2.745951573142305,
      "lon": 72.87746242386696,
      "area_km2": 1.3389,
      "population": 182,
      "slr_m": 0.3,
      "area_inundated_km2": 0.2036,
      "frac_inundated": 0.1521,
      "pct_inundated": 15.21,
      "pop_at_risk": 28,
      "pct_pop_at_risk": 15.21,
      "vulnerability_index": 0.1828,
      "vi_rank": 158
    },
    {
      "island_id": 128,
      "island_name": "Meedhoo",
      "atoll": "Dhaalu",
      "lat": 2.622942434838727,
      "lon": 72.7380471056183,
      "area_km2": 6.6695,
      "population": 95,
      "slr_m": 0.3,
      "area_inundated_km2": 1.2205,
      "frac_inundated": 0.183,
      "pct_inundated": 18.3,
      "pop_at_risk": 17,
      "pct_pop_at_risk": 18.3,
      "vulnerability_index": 0.2296,
      "vi_rank": 149
    },
    {
      "island_id": 129,
      "island_name": "Veymandoo",
      "atoll": "Thaa",
      "lat": 2.2246507727016347,
      "lon": 73.07239606006127,
      "area_km2": 3.1246,
      "population": 116,
      "slr_m": 0.3,
      "area_inundated_km2": 0.6243,
      "frac_inundated": 0.1998,
      "pct_inundated": 19.98,
      "pop_at_risk": 23,
      "pct_pop_at_risk": 19.98,
      "vulnerability_index": 0.4198,
      "vi_rank": 99
    },
    {
      "island_id": 130,
      "island_name": "Buruni",
      "atoll": "Thaa",
      "lat": 2.2505875166856186,
      "lon": 72.94490931962963,
      "area_km2": 8,
      "population": 195,
      "slr_m": 0.3,
      "area_inundated_km2": 1.4736,
      "frac_inundated": 0.1842,
      "pct_inundated": 18.42,
      "pop_at_risk": 36,
      "pct_pop_at_risk": 18.42,
      "vulnerability_index": 0.2027,
      "vi_rank": 153
    },
    {
      "island_id": 131,
      "island_name": "Dhiyamigili",
      "atoll": "Thaa",
      "lat": 2.313952454450529,
      "lon": 73.06024837300886,
      "area_km2": 3.3109,
      "population": 483,
      "slr_m": 0.3,
      "area_inundated_km2": 0.5542,
      "frac_inundated": 0.1674,
      "pct_inundated": 16.74,
      "pop_at_risk": 81,
      "pct_pop_at_risk": 16.74,
      "vulnerability_index": 0.223,
      "vi_rank": 151
    },
    {
      "island_id": 132,
      "island_name": "Gaadhiffushi",
      "atoll": "Thaa",
      "lat": 2.320610320735865,
      "lon": 73.08349905177799,
      "area_km2": 2.1708,
      "population": 429,
      "slr_m": 0.3,
      "area_inundated_km2": 0.5803,
      "frac_inundated": 0.2673,
      "pct_inundated": 26.73,
      "pop_at_risk": 115,
      "pct_pop_at_risk": 26.73,
      "vulnerability_index": 0.8442,
      "vi_rank": 15
    },
    {
      "island_id": 133,
      "island_name": "Guraidhoo",
      "atoll": "Thaa",
      "lat": 2.3066042161678437,
      "lon": 73.14269861383194,
      "area_km2": 8,
      "population": 671,
      "slr_m": 0.3,
      "area_inundated_km2": 1.3848,
      "frac_inundated": 0.1731,
      "pct_inundated": 17.31,
      "pop_at_risk": 116,
      "pct_pop_at_risk": 17.31,
      "vulnerability_index": 0.1369,
      "vi_rank": 171
    },
    {
      "island_id": 134,
      "island_name": "Hirilandhoo",
      "atoll": "Thaa",
      "lat": 2.348340416804035,
      "lon": 73.10893046810733,
      "area_km2": 1.3377,
      "population": 50,
      "slr_m": 0.3,
      "area_inundated_km2": 0.3046,
      "frac_inundated": 0.2277,
      "pct_inundated": 22.77,
      "pop_at_risk": 11,
      "pct_pop_at_risk": 22.77,
      "vulnerability_index": 0.6308,
      "vi_rank": 53
    },
    {
      "island_id": 135,
      "island_name": "Kinbidhoo",
      "atoll": "Thaa",
      "lat": 2.0888006937547585,
      "lon": 73.10399179369071,
      "area_km2": 0.9684,
      "population": 780,
      "slr_m": 0.3,
      "area_inundated_km2": 0.21,
      "frac_inundated": 0.2169,
      "pct_inundated": 21.69,
      "pop_at_risk": 169,
      "pct_pop_at_risk": 21.69,
      "vulnerability_index": 0.5763,
      "vi_rank": 64
    },
    {
      "island_id": 136,
      "island_name": "Madifushi",
      "atoll": "Thaa",
      "lat": 2.3106441410516023,
      "lon": 72.98000899556325,
      "area_km2": 1.9726,
      "population": 104,
      "slr_m": 0.3,
      "area_inundated_km2": 0.4208,
      "frac_inundated": 0.2133,
      "pct_inundated": 21.33,
      "pop_at_risk": 22,
      "pct_pop_at_risk": 21.33,
      "vulnerability_index": 0.5293,
      "vi_rank": 73
    },
    {
      "island_id": 137,
      "island_name": "Omadhoo",
      "atoll": "Thaa",
      "lat": 2.062133177838319,
      "lon": 72.90604480927718,
      "area_km2": 1.0828,
      "population": 60,
      "slr_m": 0.3,
      "area_inundated_km2": 0.2183,
      "frac_inundated": 0.2016,
      "pct_inundated": 20.16,
      "pop_at_risk": 12,
      "pct_pop_at_risk": 20.16,
      "vulnerability_index": 0.4827,
      "vi_rank": 86
    },
    {
      "island_id": 138,
      "island_name": "Fonadhoo",
      "atoll": "Laamu",
      "lat": 2.0605913164700826,
      "lon": 73.39845186565034,
      "area_km2": 1.219,
      "population": 8500,
      "slr_m": 0.3,
      "area_inundated_km2": 0.2026,
      "frac_inundated": 0.1662,
      "pct_inundated": 16.62,
      "pop_at_risk": 1413,
      "pct_pop_at_risk": 16.62,
      "vulnerability_index": 0.2694,
      "vi_rank": 137
    },
    {
      "island_id": 139,
      "island_name": "Dhanbidhoo",
      "atoll": "Laamu",
      "lat": 1.8735822261482435,
      "lon": 73.65570581772032,
      "area_km2": 2.4268,
      "population": 62,
      "slr_m": 0.3,
      "area_inundated_km2": 0.5999,
      "frac_inundated": 0.2472,
      "pct_inundated": 24.72,
      "pop_at_risk": 15,
      "pct_pop_at_risk": 24.72,
      "vulnerability_index": 0.7185,
      "vi_rank": 34
    },
    {
      "island_id": 140,
      "island_name": "Gaadhoo",
      "atoll": "Laamu",
      "lat": 2.1824390371289195,
      "lon": 73.55348649016895,
      "area_km2": 1.4168,
      "population": 2305,
      "slr_m": 0.3,
      "area_inundated_km2": 0.3978,
      "frac_inundated": 0.2808,
      "pct_inundated": 28.08,
      "pop_at_risk": 647,
      "pct_pop_at_risk": 28.08,
      "vulnerability_index": 0.9435,
      "vi_rank": 3
    },
    {
      "island_id": 141,
      "island_name": "Gan",
      "atoll": "Laamu",
      "lat": 1.8580657283910704,
      "lon": 73.65708547802807,
      "area_km2": 8,
      "population": 567,
      "slr_m": 0.3,
      "area_inundated_km2": 1.6704,
      "frac_inundated": 0.2088,
      "pct_inundated": 20.88,
      "pop_at_risk": 118,
      "pct_pop_at_risk": 20.88,
      "vulnerability_index": 0.3484,
      "vi_rank": 121
    },
    {
      "island_id": 142,
      "island_name": "Hithadhoo",
      "atoll": "Laamu",
      "lat": 2.0500114909024005,
      "lon": 73.41232153787564,
      "area_km2": 3.7909,
      "population": 15000,
      "slr_m": 0.3,
      "area_inundated_km2": 0.9894,
      "frac_inundated": 0.261,
      "pct_inundated": 26.1,
      "pop_at_risk": 3915,
      "pct_pop_at_risk": 26.1,
      "vulnerability_index": 0.7654,
      "vi_rank": 25
    },
    {
      "island_id": 143,
      "island_name": "Isdhoo",
      "atoll": "Laamu",
      "lat": 2.169347671225981,
      "lon": 73.46089003908236,
      "area_km2": 0.8536,
      "population": 57,
      "slr_m": 0.3,
      "area_inundated_km2": 0.2064,
      "frac_inundated": 0.2418,
      "pct_inundated": 24.18,
      "pop_at_risk": 14,
      "pct_pop_at_risk": 24.18,
      "vulnerability_index": 0.7268,
      "vi_rank": 31
    },
    {
      "island_id": 144,
      "island_name": "Kunahandhoo",
      "atoll": "Laamu",
      "lat": 1.952605984395511,
      "lon": 73.49922598623652,
      "area_km2": 6.4487,
      "population": 173,
      "slr_m": 0.3,
      "area_inundated_km2": 1.7508,
      "frac_inundated": 0.2715,
      "pct_inundated": 27.15,
      "pop_at_risk": 47,
      "pct_pop_at_risk": 27.15,
      "vulnerability_index": 0.7597,
      "vi_rank": 26
    },
    {
      "island_id": 145,
      "island_name": "Vilingili",
      "atoll": "Gaafu Alifu",
      "lat": 0.728055230790762,
      "lon": 73.29593262019239,
      "area_km2": 8,
      "population": 50,
      "slr_m": 0.3,
      "area_inundated_km2": 1.6608,
      "frac_inundated": 0.2076,
      "pct_inundated": 20.76,
      "pop_at_risk": 10,
      "pct_pop_at_risk": 20.76,
      "vulnerability_index": 0.3413,
      "vi_rank": 122
    },
    {
      "island_id": 146,
      "island_name": "Dhaandhoo",
      "atoll": "Gaafu Alifu",
      "lat": 0.7460057871174081,
      "lon": 73.34016609014714,
      "area_km2": 3.5658,
      "population": 340,
      "slr_m": 0.3,
      "area_inundated_km2": 0.9745,
      "frac_inundated": 0.2733,
      "pct_inundated": 27.33,
      "pop_at_risk": 93,
      "pct_pop_at_risk": 27.33,
      "vulnerability_index": 0.8441,
      "vi_rank": 16
    },
    {
      "island_id": 147,
      "island_name": "Gemanafushi",
      "atoll": "Gaafu Alifu",
      "lat": 0.8681805304643186,
      "lon": 73.17538579437542,
      "area_km2": 4.7489,
      "population": 345,
      "slr_m": 0.3,
      "area_inundated_km2": 0.7166,
      "frac_inundated": 0.1509,
      "pct_inundated": 15.09,
      "pop_at_risk": 52,
      "pct_pop_at_risk": 15.09,
      "vulnerability_index": 0.0885,
      "vi_rank": 176
    },
    {
      "island_id": 148,
      "island_name": "Kanduhulhudhoo",
      "atoll": "Gaafu Alifu",
      "lat": 0.6335543059472819,
      "lon": 73.02758731378186,
      "area_km2": 3.5554,
      "population": 1367,
      "slr_m": 0.3,
      "area_inundated_km2": 0.7018,
      "frac_inundated": 0.1974,
      "pct_inundated": 19.74,
      "pop_at_risk": 270,
      "pct_pop_at_risk": 19.74,
      "vulnerability_index": 0.3946,
      "vi_rank": 106
    },
    {
      "island_id": 149,
      "island_name": "Kolamaafushi",
      "atoll": "Gaafu Alifu",
      "lat": 0.6753160801891508,
      "lon": 73.22070176877796,
      "area_km2": 1.1579,
      "population": 1307,
      "slr_m": 0.3,
      "area_inundated_km2": 0.2122,
      "frac_inundated": 0.1833,
      "pct_inundated": 18.33,
      "pop_at_risk": 240,
      "pct_pop_at_risk": 18.33,
      "vulnerability_index": 0.3723,
      "vi_rank": 115
    },
    {
      "island_id": 150,
      "island_name": "Kondey",
      "atoll": "Gaafu Alifu",
      "lat": 0.516857426023776,
      "lon": 73.31735669383019,
      "area_km2": 3.1587,
      "population": 99,
      "slr_m": 0.3,
      "area_inundated_km2": 0.6482,
      "frac_inundated": 0.2052,
      "pct_inundated": 20.52,
      "pop_at_risk": 20,
      "pct_pop_at_risk": 20.52,
      "vulnerability_index": 0.4509,
      "vi_rank": 92
    },
    {
      "island_id": 151,
      "island_name": "Thinadhoo",
      "atoll": "Gaafu Dhaalu",
      "lat": 0.20364335543793705,
      "lon": 72.95061673168108,
      "area_km2": 7.6895,
      "population": 9000,
      "slr_m": 0.3,
      "area_inundated_km2": 1.9424,
      "frac_inundated": 0.2526,
      "pct_inundated": 25.26,
      "pop_at_risk": 2273,
      "pct_pop_at_risk": 25.26,
      "vulnerability_index": 0.6159,
      "vi_rank": 59
    },
    {
      "island_id": 152,
      "island_name": "Faresmaathodaa",
      "atoll": "Gaafu Dhaalu",
      "lat": 0.4160758617022251,
      "lon": 72.96802396709519,
      "area_km2": 3.7631,
      "population": 836,
      "slr_m": 0.3,
      "area_inundated_km2": 0.6864,
      "frac_inundated": 0.1824,
      "pct_inundated": 18.24,
      "pop_at_risk": 152,
      "pct_pop_at_risk": 18.24,
      "vulnerability_index": 0.3004,
      "vi_rank": 131
    },
    {
      "island_id": 153,
      "island_name": "Fiyoaree",
      "atoll": "Gaafu Dhaalu",
      "lat": 0.20432688604442562,
      "lon": 73.10439923222978,
      "area_km2": 6.0857,
      "population": 192,
      "slr_m": 0.3,
      "area_inundated_km2": 1.3072,
      "frac_inundated": 0.2148,
      "pct_inundated": 21.48,
      "pop_at_risk": 41,
      "pct_pop_at_risk": 21.48,
      "vulnerability_index": 0.433,
      "vi_rank": 94
    },
    {
      "island_id": 154,
      "island_name": "Gadhdhoo",
      "atoll": "Gaafu Dhaalu",
      "lat": 0.1957933981078196,
      "lon": 73.30039486027098,
      "area_km2": 1.9112,
      "population": 259,
      "slr_m": 0.3,
      "area_inundated_km2": 0.4438,
      "frac_inundated": 0.2322,
      "pct_inundated": 23.22,
      "pop_at_risk": 60,
      "pct_pop_at_risk": 23.22,
      "vulnerability_index": 0.6428,
      "vi_rank": 51
    },
    {
      "island_id": 155,
      "island_name": "Hoadedhdhoo",
      "atoll": "Gaafu Dhaalu",
      "lat": 0.39127973724186416,
      "lon": 73.19896619456097,
      "area_km2": 6.1511,
      "population": 246,
      "slr_m": 0.3,
      "area_inundated_km2": 1.1958,
      "frac_inundated": 0.1944,
      "pct_inundated": 19.44,
      "pop_at_risk": 48,
      "pct_pop_at_risk": 19.44,
      "vulnerability_index": 0.3104,
      "vi_rank": 128
    },
    {
      "island_id": 156,
      "island_name": "Madaveli",
      "atoll": "Gaafu Dhaalu",
      "lat": 0.18829270509031898,
      "lon": 73.0093528119054,
      "area_km2": 1.5534,
      "population": 245,
      "slr_m": 0.3,
      "area_inundated_km2": 0.2419,
      "frac_inundated": 0.1557,
      "pct_inundated": 15.57,
      "pop_at_risk": 38,
      "pct_pop_at_risk": 15.57,
      "vulnerability_index": 0.1987,
      "vi_rank": 155
    },
    {
      "island_id": 157,
      "island_name": "Nadellaa",
      "atoll": "Gaafu Dhaalu",
      "lat": 0.35335942856114344,
      "lon": 73.09717411402315,
      "area_km2": 4.2772,
      "population": 228,
      "slr_m": 0.3,
      "area_inundated_km2": 0.7583,
      "frac_inundated": 0.1773,
      "pct_inundated": 17.73,
      "pop_at_risk": 40,
      "pct_pop_at_risk": 17.73,
      "vulnerability_index": 0.257,
      "vi_rank": 141
    },
    {
      "island_id": 158,
      "island_name": "Fuvahmulah",
      "atoll": "Gnaviyani",
      "lat": -0.2705318183802375,
      "lon": 73.43052004400653,
      "area_km2": 2.5693,
      "population": 12000,
      "slr_m": 0.3,
      "area_inundated_km2": 0.4679,
      "frac_inundated": 0.1821,
      "pct_inundated": 18.21,
      "pop_at_risk": 2185,
      "pct_pop_at_risk": 18.21,
      "vulnerability_index": 0.3291,
      "vi_rank": 125
    },
    {
      "island_id": 159,
      "island_name": "Gnaviyani Island 02",
      "atoll": "Gnaviyani",
      "lat": -0.21659384583276553,
      "lon": 73.36883161333827,
      "area_km2": 5.1853,
      "population": 99,
      "slr_m": 0.3,
      "area_inundated_km2": 0.7825,
      "frac_inundated": 0.1509,
      "pct_inundated": 15.09,
      "pop_at_risk": 15,
      "pct_pop_at_risk": 15.09,
      "vulnerability_index": 0.0773,
      "vi_rank": 177
    },
    {
      "island_id": 160,
      "island_name": "Gnaviyani Island 03",
      "atoll": "Gnaviyani",
      "lat": -0.2528513460775957,
      "lon": 73.48139031439354,
      "area_km2": 1.5615,
      "population": 50,
      "slr_m": 0.3,
      "area_inundated_km2": 0.3832,
      "frac_inundated": 0.2454,
      "pct_inundated": 24.54,
      "pop_at_risk": 12,
      "pct_pop_at_risk": 24.54,
      "vulnerability_index": 0.73,
      "vi_rank": 30
    },
    {
      "island_id": 161,
      "island_name": "Gnaviyani Island 04",
      "atoll": "Gnaviyani",
      "lat": -0.34204714675248765,
      "lon": 73.49461190568856,
      "area_km2": 2.3164,
      "population": 106,
      "slr_m": 0.3,
      "area_inundated_km2": 0.4566,
      "frac_inundated": 0.1971,
      "pct_inundated": 19.71,
      "pop_at_risk": 21,
      "pct_pop_at_risk": 19.71,
      "vulnerability_index": 0.4245,
      "vi_rank": 98
    },
    {
      "island_id": 162,
      "island_name": "Gnaviyani Island 05",
      "atoll": "Gnaviyani",
      "lat": -0.23003721903777619,
      "lon": 73.39445979959434,
      "area_km2": 2.345,
      "population": 153,
      "slr_m": 0.3,
      "area_inundated_km2": 0.5515,
      "frac_inundated": 0.2352,
      "pct_inundated": 23.52,
      "pop_at_risk": 36,
      "pct_pop_at_risk": 23.52,
      "vulnerability_index": 0.6495,
      "vi_rank": 49
    },
    {
      "island_id": 163,
      "island_name": "Gnaviyani Island 06",
      "atoll": "Gnaviyani",
      "lat": -0.24360943096541088,
      "lon": 73.47972168464439,
      "area_km2": 2.0801,
      "population": 50,
      "slr_m": 0.3,
      "area_inundated_km2": 0.5161,
      "frac_inundated": 0.2481,
      "pct_inundated": 24.81,
      "pop_at_risk": 12,
      "pct_pop_at_risk": 24.81,
      "vulnerability_index": 0.7327,
      "vi_rank": 29
    },
    {
      "island_id": 164,
      "island_name": "Gnaviyani Island 07",
      "atoll": "Gnaviyani",
      "lat": -0.32403558288329176,
      "lon": 73.35906842947217,
      "area_km2": 1.6994,
      "population": 237,
      "slr_m": 0.3,
      "area_inundated_km2": 0.4522,
      "frac_inundated": 0.2661,
      "pct_inundated": 26.61,
      "pop_at_risk": 63,
      "pct_pop_at_risk": 26.61,
      "vulnerability_index": 0.8491,
      "vi_rank": 14
    },
    {
      "island_id": 165,
      "island_name": "Gnaviyani Island 08",
      "atoll": "Gnaviyani",
      "lat": -0.2715432167801874,
      "lon": 73.36662499788603,
      "area_km2": 3.43,
      "population": 144,
      "slr_m": 0.3,
      "area_inundated_km2": 0.9405,
      "frac_inundated": 0.2742,
      "pct_inundated": 27.42,
      "pop_at_risk": 39,
      "pct_pop_at_risk": 27.42,
      "vulnerability_index": 0.8529,
      "vi_rank": 13
    },
    {
      "island_id": 166,
      "island_name": "Gnaviyani Island 09",
      "atoll": "Gnaviyani",
      "lat": -0.26052141395875283,
      "lon": 73.38840776692108,
      "area_km2": 4.7816,
      "population": 184,
      "slr_m": 0.3,
      "area_inundated_km2": 1.1519,
      "frac_inundated": 0.2409,
      "pct_inundated": 24.09,
      "pop_at_risk": 44,
      "pct_pop_at_risk": 24.09,
      "vulnerability_index": 0.621,
      "vi_rank": 57
    },
    {
      "island_id": 167,
      "island_name": "Gnaviyani Island 10",
      "atoll": "Gnaviyani",
      "lat": -0.28656435386197743,
      "lon": 73.35569800441286,
      "area_km2": 1.7116,
      "population": 192,
      "slr_m": 0.3,
      "area_inundated_km2": 0.284,
      "frac_inundated": 0.1659,
      "pct_inundated": 16.59,
      "pop_at_risk": 32,
      "pct_pop_at_risk": 16.59,
      "vulnerability_index": 0.2551,
      "vi_rank": 142
    },
    {
      "island_id": 168,
      "island_name": "Gnaviyani Island 11",
      "atoll": "Gnaviyani",
      "lat": -0.24200118448166202,
      "lon": 73.36835866962055,
      "area_km2": 3.6644,
      "population": 81,
      "slr_m": 0.3,
      "area_inundated_km2": 0.8311,
      "frac_inundated": 0.2268,
      "pct_inundated": 22.68,
      "pop_at_risk": 18,
      "pct_pop_at_risk": 22.68,
      "vulnerability_index": 0.566,
      "vi_rank": 67
    },
    {
      "island_id": 169,
      "island_name": "Hithadhoo",
      "atoll": "Seenu",
      "lat": -0.40769157546052975,
      "lon": 73.07127565278701,
      "area_km2": 1.8844,
      "population": 15000,
      "slr_m": 0.3,
      "area_inundated_km2": 0.4777,
      "frac_inundated": 0.2535,
      "pct_inundated": 25.35,
      "pop_at_risk": 3803,
      "pct_pop_at_risk": 25.35,
      "vulnerability_index": 0.7697,
      "vi_rank": 24
    },
    {
      "island_id": 170,
      "island_name": "Feydhoo",
      "atoll": "Seenu",
      "lat": -0.5992875377413089,
      "lon": 73.14323906577035,
      "area_km2": 8,
      "population": 340,
      "slr_m": 0.3,
      "area_inundated_km2": 1.2768,
      "frac_inundated": 0.1596,
      "pct_inundated": 15.96,
      "pop_at_risk": 54,
      "pct_pop_at_risk": 15.96,
      "vulnerability_index": 0.0569,
      "vi_rank": 179
    },
    {
      "island_id": 171,
      "island_name": "Maradhoo",
      "atoll": "Seenu",
      "lat": -0.746689563080829,
      "lon": 73.18219805365247,
      "area_km2": 7.0189,
      "population": 491,
      "slr_m": 0.3,
      "area_inundated_km2": 1.4571,
      "frac_inundated": 0.2076,
      "pct_inundated": 20.76,
      "pop_at_risk": 102,
      "pct_pop_at_risk": 20.76,
      "vulnerability_index": 0.3664,
      "vi_rank": 117
    },
    {
      "island_id": 172,
      "island_name": "Meedhoo",
      "atoll": "Seenu",
      "lat": -0.6275199080415815,
      "lon": 73.15553851495626,
      "area_km2": 2.4384,
      "population": 1974,
      "slr_m": 0.3,
      "area_inundated_km2": 0.368,
      "frac_inundated": 0.1509,
      "pct_inundated": 15.09,
      "pop_at_risk": 298,
      "pct_pop_at_risk": 15.09,
      "vulnerability_index": 0.1476,
      "vi_rank": 165
    },
    {
      "island_id": 173,
      "island_name": "Hulhumeedhoo",
      "atoll": "Seenu",
      "lat": -0.7126478905702587,
      "lon": 73.28435135510152,
      "area_km2": 6.7704,
      "population": 149,
      "slr_m": 0.3,
      "area_inundated_km2": 1.1273,
      "frac_inundated": 0.1665,
      "pct_inundated": 16.65,
      "pop_at_risk": 25,
      "pct_pop_at_risk": 16.65,
      "vulnerability_index": 0.1292,
      "vi_rank": 173
    },
    {
      "island_id": 174,
      "island_name": "Seenu Island 06",
      "atoll": "Seenu",
      "lat": -0.43319718389147827,
      "lon": 73.1398413063469,
      "area_km2": 5.4215,
      "population": 865,
      "slr_m": 0.3,
      "area_inundated_km2": 1.5077,
      "frac_inundated": 0.2781,
      "pct_inundated": 27.81,
      "pop_at_risk": 241,
      "pct_pop_at_risk": 27.81,
      "vulnerability_index": 0.8251,
      "vi_rank": 18
    },
    {
      "island_id": 175,
      "island_name": "Seenu Island 07",
      "atoll": "Seenu",
      "lat": -0.6359386814259782,
      "lon": 73.32552571491699,
      "area_km2": 0.7238,
      "population": 175,
      "slr_m": 0.3,
      "area_inundated_km2": 0.132,
      "frac_inundated": 0.1824,
      "pct_inundated": 18.24,
      "pop_at_risk": 32,
      "pct_pop_at_risk": 18.24,
      "vulnerability_index": 0.3781,
      "vi_rank": 113
    },
    {
      "island_id": 176,
      "island_name": "Seenu Island 08",
      "atoll": "Seenu",
      "lat": -0.7373246010712639,
      "lon": 72.97187391324478,
      "area_km2": 8,
      "population": 120,
      "slr_m": 0.3,
      "area_inundated_km2": 1.5408,
      "frac_inundated": 0.1926,
      "pct_inundated": 19.26,
      "pop_at_risk": 23,
      "pct_pop_at_risk": 19.26,
      "vulnerability_index": 0.2524,
      "vi_rank": 144
    },
    {
      "island_id": 177,
      "island_name": "Seenu Island 09",
      "atoll": "Seenu",
      "lat": -0.4148845819441798,
      "lon": 73.25872951063997,
      "area_km2": 8,
      "population": 57,
      "slr_m": 0.3,
      "area_inundated_km2": 1.956,
      "frac_inundated": 0.2445,
      "pct_inundated": 24.45,
      "pop_at_risk": 14,
      "pct_pop_at_risk": 24.45,
      "vulnerability_index": 0.56,
      "vi_rank": 68
    },
    {
      "island_id": 178,
      "island_name": "Seenu Island 10",
      "atoll": "Seenu",
      "lat": -0.45702473645960556,
      "lon": 73.22257088177665,
      "area_km2": 7.127,
      "population": 50,
      "slr_m": 0.3,
      "area_inundated_km2": 1.9692,
      "frac_inundated": 0.2763,
      "pct_inundated": 27.63,
      "pop_at_risk": 14,
      "pct_pop_at_risk": 27.63,
      "vulnerability_index": 0.7708,
      "vi_rank": 23
    },
    {
      "island_id": 179,
      "island_name": "Feevah",
      "atoll": "Shaviyani",
      "lat": 6.041392326230284,
      "lon": 73.01002263337249,
      "area_km2": 0.18,
      "population": 312,
      "slr_m": 0.3,
      "area_inundated_km2": 0.0346,
      "frac_inundated": 0.192,
      "pct_inundated": 19.2,
      "pop_at_risk": 60,
      "pct_pop_at_risk": 19.2,
      "vulnerability_index": 0.4489,
      "vi_rank": 93
    },
    {
      "island_id": 180,
      "island_name": "Maaungoodhoo",
      "atoll": "Shaviyani",
      "lat": 5.9625808122053146,
      "lon": 73.02452939555029,
      "area_km2": 0.31,
      "population": 891,
      "slr_m": 0.3,
      "area_inundated_km2": 0.067,
      "frac_inundated": 0.216,
      "pct_inundated": 21.6,
      "pop_at_risk": 192,
      "pct_pop_at_risk": 21.6,
      "vulnerability_index": 0.5878,
      "vi_rank": 63
    },
    {
      "island_id": 181,
      "island_name": "Bileffahi",
      "atoll": "Shaviyani",
      "lat": 6.165957102777828,
      "lon": 73.02534530251256,
      "area_km2": 0.43,
      "population": 1240,
      "slr_m": 0.3,
      "area_inundated_km2": 0.1019,
      "frac_inundated": 0.237,
      "pct_inundated": 23.7,
      "pop_at_risk": 294,
      "pct_pop_at_risk": 23.7,
      "vulnerability_index": 0.7092,
      "vi_rank": 36
    }
  ],
  "SSP1-2.6_2100": [
    {
      "island_id": 1,
      "island_name": "Dhidhdhoo",
      "atoll": "Haa Alif",
      "lat": 6.587831219923177,
      "lon": 73.1943779504612,
      "area_km2": 2.4815,
      "population": 381,
      "slr_m": 0.5,
      "area_inundated_km2": 0.8214,
      "frac_inundated": 0.331,
      "pct_inundated": 33.1,
      "pop_at_risk": 126,
      "pct_pop_at_risk": 33.1,
      "vulnerability_index": 0.4291,
      "vi_rank": 96
    },
    {
      "island_id": 2,
      "island_name": "Baarah",
      "atoll": "Haa Alif",
      "lat": 6.7799425547895815,
      "lon": 73.01593779948678,
      "area_km2": 2.6986,
      "population": 57,
      "slr_m": 0.5,
      "area_inundated_km2": 1.1469,
      "frac_inundated": 0.425,
      "pct_inundated": 42.5,
      "pop_at_risk": 24,
      "pct_pop_at_risk": 42.5,
      "vulnerability_index": 0.7578,
      "vi_rank": 27
    },
    {
      "island_id": 3,
      "island_name": "Filladhoo",
      "atoll": "Haa Alif",
      "lat": 6.648366987681567,
      "lon": 73.19361722427271,
      "area_km2": 2.3856,
      "population": 824,
      "slr_m": 0.5,
      "area_inundated_km2": 1.0437,
      "frac_inundated": 0.4375,
      "pct_inundated": 43.75,
      "pop_at_risk": 361,
      "pct_pop_at_risk": 43.75,
      "vulnerability_index": 0.8103,
      "vi_rank": 19
    },
    {
      "island_id": 4,
      "island_name": "Hoarafushi",
      "atoll": "Haa Alif",
      "lat": 6.596497801620629,
      "lon": 73.06194850884191,
      "area_km2": 0.5645,
      "population": 788,
      "slr_m": 0.5,
      "area_inundated_km2": 0.2202,
      "frac_inundated": 0.39,
      "pct_inundated": 39,
      "pop_at_risk": 307,
      "pct_pop_at_risk": 39,
      "vulnerability_index": 0.6879,
      "vi_rank": 41
    },
    {
      "island_id": 5,
      "island_name": "Ihavandhoo",
      "atoll": "Haa Alif",
      "lat": 6.720366234954066,
      "lon": 72.90536890304772,
      "area_km2": 3.2068,
      "population": 116,
      "slr_m": 0.5,
      "area_inundated_km2": 1.1721,
      "frac_inundated": 0.3655,
      "pct_inundated": 36.55,
      "pop_at_risk": 42,
      "pct_pop_at_risk": 36.55,
      "vulnerability_index": 0.5333,
      "vi_rank": 72
    },
    {
      "island_id": 6,
      "island_name": "Kelaa",
      "atoll": "Haa Alif",
      "lat": 7.056366887701761,
      "lon": 73.05579549116217,
      "area_km2": 2.3896,
      "population": 1300,
      "slr_m": 0.5,
      "area_inundated_km2": 0.693,
      "frac_inundated": 0.29,
      "pct_inundated": 29,
      "pop_at_risk": 377,
      "pct_pop_at_risk": 29,
      "vulnerability_index": 0.2857,
      "vi_rank": 133
    },
    {
      "island_id": 7,
      "island_name": "Maarandhoo",
      "atoll": "Haa Alif",
      "lat": 6.629576587229868,
      "lon": 73.04005976306276,
      "area_km2": 5.4021,
      "population": 479,
      "slr_m": 0.5,
      "area_inundated_km2": 2.1906,
      "frac_inundated": 0.4055,
      "pct_inundated": 40.55,
      "pop_at_risk": 194,
      "pct_pop_at_risk": 40.55,
      "vulnerability_index": 0.6193,
      "vi_rank": 58
    },
    {
      "island_id": 8,
      "island_name": "Kulhudhuffushi",
      "atoll": "Haa Dhaalu",
      "lat": 6.524997613433515,
      "lon": 73.13715797397009,
      "area_km2": 2.4343,
      "population": 12000,
      "slr_m": 0.5,
      "area_inundated_km2": 0.8849,
      "frac_inundated": 0.3635,
      "pct_inundated": 36.35,
      "pop_at_risk": 4362,
      "pct_pop_at_risk": 36.35,
      "vulnerability_index": 0.5459,
      "vi_rank": 70
    },
    {
      "island_id": 9,
      "island_name": "Hanimaadhoo",
      "atoll": "Haa Dhaalu",
      "lat": 6.268247259866504,
      "lon": 72.93815372374098,
      "area_km2": 8,
      "population": 170,
      "slr_m": 0.5,
      "area_inundated_km2": 3.288,
      "frac_inundated": 0.411,
      "pct_inundated": 41.1,
      "pop_at_risk": 70,
      "pct_pop_at_risk": 41.1,
      "vulnerability_index": 0.5724,
      "vi_rank": 65
    },
    {
      "island_id": 10,
      "island_name": "Finey",
      "atoll": "Haa Dhaalu",
      "lat": 6.3732927648172,
      "lon": 72.91165716372468,
      "area_km2": 3.4382,
      "population": 50,
      "slr_m": 0.5,
      "area_inundated_km2": 1.1827,
      "frac_inundated": 0.344,
      "pct_inundated": 34.4,
      "pop_at_risk": 17,
      "pct_pop_at_risk": 34.4,
      "vulnerability_index": 0.4509,
      "vi_rank": 91
    },
    {
      "island_id": 11,
      "island_name": "Kumundhoo",
      "atoll": "Haa Dhaalu",
      "lat": 6.3678793365061,
      "lon": 72.88015079075241,
      "area_km2": 3.7946,
      "population": 176,
      "slr_m": 0.5,
      "area_inundated_km2": 1.1782,
      "frac_inundated": 0.3105,
      "pct_inundated": 31.05,
      "pop_at_risk": 55,
      "pct_pop_at_risk": 31.05,
      "vulnerability_index": 0.3227,
      "vi_rank": 126
    },
    {
      "island_id": 12,
      "island_name": "Makunudhoo",
      "atoll": "Haa Dhaalu",
      "lat": 6.454753514729616,
      "lon": 72.87284264395079,
      "area_km2": 0.9866,
      "population": 439,
      "slr_m": 0.5,
      "area_inundated_km2": 0.298,
      "frac_inundated": 0.302,
      "pct_inundated": 30.2,
      "pop_at_risk": 133,
      "pct_pop_at_risk": 30.2,
      "vulnerability_index": 0.3643,
      "vi_rank": 118
    },
    {
      "island_id": 13,
      "island_name": "Naivaadhoo",
      "atoll": "Haa Dhaalu",
      "lat": 6.598280762624526,
      "lon": 73.12333977452325,
      "area_km2": 4.5114,
      "population": 528,
      "slr_m": 0.5,
      "area_inundated_km2": 1.8858,
      "frac_inundated": 0.418,
      "pct_inundated": 41.8,
      "pop_at_risk": 221,
      "pct_pop_at_risk": 41.8,
      "vulnerability_index": 0.6866,
      "vi_rank": 42
    },
    {
      "island_id": 14,
      "island_name": "Neykurendhoo",
      "atoll": "Haa Dhaalu",
      "lat": 6.5592881157783065,
      "lon": 72.92150269499317,
      "area_km2": 2.4035,
      "population": 317,
      "slr_m": 0.5,
      "area_inundated_km2": 1.1152,
      "frac_inundated": 0.464,
      "pct_inundated": 46.4,
      "pop_at_risk": 147,
      "pct_pop_at_risk": 46.4,
      "vulnerability_index": 0.904,
      "vi_rank": 7
    },
    {
      "island_id": 15,
      "island_name": "Nolhivaranfaru",
      "atoll": "Haa Dhaalu",
      "lat": 6.31509330098403,
      "lon": 72.85807343363018,
      "area_km2": 3.354,
      "population": 311,
      "slr_m": 0.5,
      "area_inundated_km2": 1.2628,
      "frac_inundated": 0.3765,
      "pct_inundated": 37.65,
      "pop_at_risk": 117,
      "pct_pop_at_risk": 37.65,
      "vulnerability_index": 0.5686,
      "vi_rank": 66
    },
    {
      "island_id": 16,
      "island_name": "Nolhivaram",
      "atoll": "Haa Dhaalu",
      "lat": 6.316161374087948,
      "lon": 73.01611590768819,
      "area_km2": 8,
      "population": 517,
      "slr_m": 0.5,
      "area_inundated_km2": 2.884,
      "frac_inundated": 0.3605,
      "pct_inundated": 36.05,
      "pop_at_risk": 186,
      "pct_pop_at_risk": 36.05,
      "vulnerability_index": 0.3929,
      "vi_rank": 108
    },
    {
      "island_id": 17,
      "island_name": "Vaikaradhoo",
      "atoll": "Haa Dhaalu",
      "lat": 6.313004418093014,
      "lon": 73.07425055425247,
      "area_km2": 1.3786,
      "population": 851,
      "slr_m": 0.5,
      "area_inundated_km2": 0.4177,
      "frac_inundated": 0.303,
      "pct_inundated": 30.3,
      "pop_at_risk": 258,
      "pct_pop_at_risk": 30.3,
      "vulnerability_index": 0.3578,
      "vi_rank": 120
    },
    {
      "island_id": 18,
      "island_name": "Nellaidhoo",
      "atoll": "Haa Dhaalu",
      "lat": 6.545753892626556,
      "lon": 72.96197147597837,
      "area_km2": 1.7814,
      "population": 2032,
      "slr_m": 0.5,
      "area_inundated_km2": 0.6805,
      "frac_inundated": 0.382,
      "pct_inundated": 38.2,
      "pop_at_risk": 776,
      "pct_pop_at_risk": 38.2,
      "vulnerability_index": 0.6284,
      "vi_rank": 54
    },
    {
      "island_id": 19,
      "island_name": "Funadhoo",
      "atoll": "Shaviyani",
      "lat": 6.0967332888154155,
      "lon": 73.13009687943386,
      "area_km2": 2.9027,
      "population": 3500,
      "slr_m": 0.5,
      "area_inundated_km2": 0.7344,
      "frac_inundated": 0.253,
      "pct_inundated": 25.3,
      "pop_at_risk": 886,
      "pct_pop_at_risk": 25.3,
      "vulnerability_index": 0.141,
      "vi_rank": 170
    },
    {
      "island_id": 20,
      "island_name": "Goidhoo",
      "atoll": "Shaviyani",
      "lat": 6.013848124133387,
      "lon": 73.10548811036989,
      "area_km2": 1.7369,
      "population": 415,
      "slr_m": 0.5,
      "area_inundated_km2": 0.7434,
      "frac_inundated": 0.428,
      "pct_inundated": 42.8,
      "pop_at_risk": 178,
      "pct_pop_at_risk": 42.8,
      "vulnerability_index": 0.7931,
      "vi_rank": 21
    },
    {
      "island_id": 21,
      "island_name": "Komandoo",
      "atoll": "Shaviyani",
      "lat": 5.985817406253381,
      "lon": 73.07920094929385,
      "area_km2": 0.3997,
      "population": 153,
      "slr_m": 0.5,
      "area_inundated_km2": 0.1005,
      "frac_inundated": 0.2515,
      "pct_inundated": 25.15,
      "pop_at_risk": 38,
      "pct_pop_at_risk": 25.15,
      "vulnerability_index": 0.1997,
      "vi_rank": 154
    },
    {
      "island_id": 22,
      "island_name": "Narudhoo",
      "atoll": "Shaviyani",
      "lat": 6.089552262946859,
      "lon": 73.00402738541692,
      "area_km2": 3.3435,
      "population": 2330,
      "slr_m": 0.5,
      "area_inundated_km2": 1.085,
      "frac_inundated": 0.3245,
      "pct_inundated": 32.45,
      "pop_at_risk": 756,
      "pct_pop_at_risk": 32.45,
      "vulnerability_index": 0.384,
      "vi_rank": 111
    },
    {
      "island_id": 23,
      "island_name": "Feydhoo",
      "atoll": "Shaviyani",
      "lat": 6.080066251866535,
      "lon": 73.17323612806463,
      "area_km2": 6.6971,
      "population": 1032,
      "slr_m": 0.5,
      "area_inundated_km2": 2.3574,
      "frac_inundated": 0.352,
      "pct_inundated": 35.2,
      "pop_at_risk": 363,
      "pct_pop_at_risk": 35.2,
      "vulnerability_index": 0.396,
      "vi_rank": 105
    },
    {
      "island_id": 24,
      "island_name": "Maroshi",
      "atoll": "Shaviyani",
      "lat": 5.903880948935142,
      "lon": 73.00927018887812,
      "area_km2": 1.0774,
      "population": 556,
      "slr_m": 0.5,
      "area_inundated_km2": 0.4202,
      "frac_inundated": 0.39,
      "pct_inundated": 39,
      "pop_at_risk": 217,
      "pct_pop_at_risk": 39,
      "vulnerability_index": 0.6748,
      "vi_rank": 44
    },
    {
      "island_id": 25,
      "island_name": "Kanditheemu",
      "atoll": "Shaviyani",
      "lat": 5.978921936517331,
      "lon": 72.96626404005016,
      "area_km2": 2.5205,
      "population": 185,
      "slr_m": 0.5,
      "area_inundated_km2": 0.7209,
      "frac_inundated": 0.286,
      "pct_inundated": 28.6,
      "pop_at_risk": 53,
      "pct_pop_at_risk": 28.6,
      "vulnerability_index": 0.2681,
      "vi_rank": 138
    },
    {
      "island_id": 26,
      "island_name": "Foakaidhoo",
      "atoll": "Shaviyani",
      "lat": 6.0431871906838355,
      "lon": 73.19954969297386,
      "area_km2": 2.2838,
      "population": 771,
      "slr_m": 0.5,
      "area_inundated_km2": 0.861,
      "frac_inundated": 0.377,
      "pct_inundated": 37.7,
      "pop_at_risk": 291,
      "pct_pop_at_risk": 37.7,
      "vulnerability_index": 0.5977,
      "vi_rank": 62
    },
    {
      "island_id": 27,
      "island_name": "Lhaimagu",
      "atoll": "Shaviyani",
      "lat": 6.084832683830716,
      "lon": 73.21194755476013,
      "area_km2": 3.616,
      "population": 1592,
      "slr_m": 0.5,
      "area_inundated_km2": 1.7013,
      "frac_inundated": 0.4705,
      "pct_inundated": 47.05,
      "pop_at_risk": 749,
      "pct_pop_at_risk": 47.05,
      "vulnerability_index": 0.8961,
      "vi_rank": 8
    },
    {
      "island_id": 28,
      "island_name": "Milandhoo",
      "atoll": "Shaviyani",
      "lat": 6.03394067620019,
      "lon": 73.06710628776744,
      "area_km2": 1.5866,
      "population": 425,
      "slr_m": 0.5,
      "area_inundated_km2": 0.4903,
      "frac_inundated": 0.309,
      "pct_inundated": 30.9,
      "pop_at_risk": 131,
      "pct_pop_at_risk": 30.9,
      "vulnerability_index": 0.3738,
      "vi_rank": 114
    },
    {
      "island_id": 29,
      "island_name": "Nalandhoo",
      "atoll": "Shaviyani",
      "lat": 6.181768359495739,
      "lon": 73.00237505839961,
      "area_km2": 4.9393,
      "population": 787,
      "slr_m": 0.5,
      "area_inundated_km2": 1.6966,
      "frac_inundated": 0.3435,
      "pct_inundated": 34.35,
      "pop_at_risk": 270,
      "pct_pop_at_risk": 34.35,
      "vulnerability_index": 0.4107,
      "vi_rank": 102
    },
    {
      "island_id": 30,
      "island_name": "Manadhoo",
      "atoll": "Noonu",
      "lat": 5.780173178850713,
      "lon": 73.3778505177884,
      "area_km2": 1.7408,
      "population": 107,
      "slr_m": 0.5,
      "area_inundated_km2": 0.5571,
      "frac_inundated": 0.32,
      "pct_inundated": 32,
      "pop_at_risk": 34,
      "pct_pop_at_risk": 32,
      "vulnerability_index": 0.409,
      "vi_rank": 103
    },
    {
      "island_id": 31,
      "island_name": "Fodhdhoo",
      "atoll": "Noonu",
      "lat": 5.761471766608644,
      "lon": 73.41418768063052,
      "area_km2": 8,
      "population": 227,
      "slr_m": 0.5,
      "area_inundated_km2": 3.096,
      "frac_inundated": 0.387,
      "pct_inundated": 38.7,
      "pop_at_risk": 88,
      "pct_pop_at_risk": 38.7,
      "vulnerability_index": 0.4871,
      "vi_rank": 85
    },
    {
      "island_id": 32,
      "island_name": "Holhudhoo",
      "atoll": "Noonu",
      "lat": 5.841601050724648,
      "lon": 73.29603012311179,
      "area_km2": 1.5362,
      "population": 540,
      "slr_m": 0.5,
      "area_inundated_km2": 0.3894,
      "frac_inundated": 0.2535,
      "pct_inundated": 25.35,
      "pop_at_risk": 137,
      "pct_pop_at_risk": 25.35,
      "vulnerability_index": 0.1778,
      "vi_rank": 160
    },
    {
      "island_id": 33,
      "island_name": "Kendhikulhudhoo",
      "atoll": "Noonu",
      "lat": 5.767186374291122,
      "lon": 73.19401678053988,
      "area_km2": 2.6957,
      "population": 593,
      "slr_m": 0.5,
      "area_inundated_km2": 0.9624,
      "frac_inundated": 0.357,
      "pct_inundated": 35.7,
      "pop_at_risk": 212,
      "pct_pop_at_risk": 35.7,
      "vulnerability_index": 0.5161,
      "vi_rank": 79
    },
    {
      "island_id": 34,
      "island_name": "Kudafari",
      "atoll": "Noonu",
      "lat": 5.938925528418954,
      "lon": 73.440254575559,
      "area_km2": 8,
      "population": 207,
      "slr_m": 0.5,
      "area_inundated_km2": 2.328,
      "frac_inundated": 0.291,
      "pct_inundated": 29.1,
      "pop_at_risk": 60,
      "pct_pop_at_risk": 29.1,
      "vulnerability_index": 0.1458,
      "vi_rank": 166
    },
    {
      "island_id": 35,
      "island_name": "Landhoo",
      "atoll": "Noonu",
      "lat": 5.771027484121972,
      "lon": 73.39211930117852,
      "area_km2": 3.4813,
      "population": 299,
      "slr_m": 0.5,
      "area_inundated_km2": 1.4308,
      "frac_inundated": 0.411,
      "pct_inundated": 41.1,
      "pop_at_risk": 123,
      "pct_pop_at_risk": 41.1,
      "vulnerability_index": 0.688,
      "vi_rank": 40
    },
    {
      "island_id": 36,
      "island_name": "Lhohi",
      "atoll": "Noonu",
      "lat": 5.7891269603951665,
      "lon": 73.4843897297942,
      "area_km2": 3.858,
      "population": 264,
      "slr_m": 0.5,
      "area_inundated_km2": 1.0031,
      "frac_inundated": 0.26,
      "pct_inundated": 26,
      "pop_at_risk": 69,
      "pct_pop_at_risk": 26,
      "vulnerability_index": 0.1415,
      "vi_rank": 168
    },
    {
      "island_id": 37,
      "island_name": "Maafaru",
      "atoll": "Noonu",
      "lat": 5.76553962047108,
      "lon": 73.35070058802391,
      "area_km2": 1.697,
      "population": 104,
      "slr_m": 0.5,
      "area_inundated_km2": 0.6525,
      "frac_inundated": 0.3845,
      "pct_inundated": 38.45,
      "pop_at_risk": 40,
      "pct_pop_at_risk": 38.45,
      "vulnerability_index": 0.6394,
      "vi_rank": 52
    },
    {
      "island_id": 38,
      "island_name": "Magoodhoo",
      "atoll": "Noonu",
      "lat": 5.845943295593826,
      "lon": 73.21047490623558,
      "area_km2": 1.6274,
      "population": 2199,
      "slr_m": 0.5,
      "area_inundated_km2": 0.6746,
      "frac_inundated": 0.4145,
      "pct_inundated": 41.45,
      "pop_at_risk": 911,
      "pct_pop_at_risk": 41.45,
      "vulnerability_index": 0.7479,
      "vi_rank": 28
    },
    {
      "island_id": 39,
      "island_name": "Miladhoo",
      "atoll": "Noonu",
      "lat": 5.809744880641751,
      "lon": 73.2486073937613,
      "area_km2": 4.3193,
      "population": 192,
      "slr_m": 0.5,
      "area_inundated_km2": 2.002,
      "frac_inundated": 0.4635,
      "pct_inundated": 46.35,
      "pop_at_risk": 89,
      "pct_pop_at_risk": 46.35,
      "vulnerability_index": 0.8532,
      "vi_rank": 11
    },
    {
      "island_id": 40,
      "island_name": "Velidhoo",
      "atoll": "Noonu",
      "lat": 5.854726860289166,
      "lon": 73.11107045589272,
      "area_km2": 0.6085,
      "population": 79,
      "slr_m": 0.5,
      "area_inundated_km2": 0.2057,
      "frac_inundated": 0.338,
      "pct_inundated": 33.8,
      "pop_at_risk": 27,
      "pct_pop_at_risk": 33.8,
      "vulnerability_index": 0.5019,
      "vi_rank": 81
    },
    {
      "island_id": 41,
      "island_name": "Noonu Island 12",
      "atoll": "Noonu",
      "lat": 5.79067886544873,
      "lon": 73.29554250822298,
      "area_km2": 4.6093,
      "population": 145,
      "slr_m": 0.5,
      "area_inundated_km2": 2.1456,
      "frac_inundated": 0.4655,
      "pct_inundated": 46.55,
      "pop_at_risk": 67,
      "pct_pop_at_risk": 46.55,
      "vulnerability_index": 0.8529,
      "vi_rank": 12
    },
    {
      "island_id": 42,
      "island_name": "Noonu Island 13",
      "atoll": "Noonu",
      "lat": 5.779141803220646,
      "lon": 73.37725595959398,
      "area_km2": 2.222,
      "population": 65,
      "slr_m": 0.5,
      "area_inundated_km2": 1.0532,
      "frac_inundated": 0.474,
      "pct_inundated": 47.4,
      "pop_at_risk": 31,
      "pct_pop_at_risk": 47.4,
      "vulnerability_index": 0.9442,
      "vi_rank": 2
    },
    {
      "island_id": 43,
      "island_name": "Ugoofaaru",
      "atoll": "Raa",
      "lat": 5.479776702839829,
      "lon": 72.8106907381701,
      "area_km2": 1.5024,
      "population": 725,
      "slr_m": 0.5,
      "area_inundated_km2": 0.6565,
      "frac_inundated": 0.437,
      "pct_inundated": 43.7,
      "pop_at_risk": 317,
      "pct_pop_at_risk": 43.7,
      "vulnerability_index": 0.8311,
      "vi_rank": 17
    },